$GPGGA,163346.000,2311.6820,N,07236.6601,E,1,6,1.43,137.6,M,-56.4,M,,*7C

$GPGLL,2311.6820,N,07236.6601,E,163346.000,A,A*50

$GPGSA,A,3,15,13,29,20,10,21,,,,,,,1.69,1.43,0.90*0E

$GPGSV,3,1,12,29,74,147,34,20,59,301,21,15,58,083,33,21,42,332,23*7E

$GPGSV,3,2,12,13,28,055,24,10,24,250,13,26,17,282,18,25,15,196,*79

$GPGSV,3,3,12,16,08,309,,24,08,138,,05,01,050,,193,,,*71

$GPRMC,163346.000,A,2311.6820,N,07236.6601,E,0.41,114.87,160518,,,A*62

$GPVTG,114.87,T,,M,0.41,N,0.75,K,A*31

$GPGGA,163347.000,2311.6820,N,07236.6602,E,1,6,1.43,137.6,M,-56.4,M,,*7E

$GPGLL,2311.6820,N,07236.6602,E,163347.000,A,A*52

$GPGSA,A,3,15,13,29,20,10,21,,,,,,,1.69,1.43,0.90*0E

$GPGSV,3,1,12,29,74,147,34,20,59,301,20,15,58,083,33,21,42,332,23*7F

$GPGSV,3,2,12,13,28,055,24,10,24,250,15,26,17,282,18,25,15,196,*7F

$GPGSV,3,3,12,16,08,309,,24,08,138,,05,01,050,,193,,,*71

$GPRMC,163347.000,A,2311.6820,N,07236.6602,E,0.40,99.45,160518,,,A*5B

$GPVTG,99.45,T,,M,0.40,N,0.74,K,A*0B

$GPGGA,163348.000,2311.6819,N,07236.6603,E,1,6,1.43,137.6,M,-56.4,M,,*7A

$GPGLL,2311.6819,N,07236.6603,E,163348.000,A,A*56

$GPGSA,A,3,15,13,29,20,10,21,,,,,,,1.69,1.43,0.90*0E

$GPGSV,3,1,12,29,74,147,34,20,59,301,20,15,58,083,33,21,42,332,23*7F

$GPGSV,3,2,12,13,28,055,24,10,24,250,15,26,17,282,18,25,15,196,*7F

$GPGSV,3,3,12,16,08,309,,24,08,138,,05,01,050,,193,,,*71

$GPRMC,163348.000,A,2311.6819,N,07236.6603,E,0.39,78.69,160518,,,A*50

$GPVTG,78.69,T,,M,0.39,N,0.72,K,A*02

$GPGGA,163349.000,2311.6820,N,07236.6604,E,1,6,1.43,137.6,M,-56.4,M,,*76

$GPGLL,2311.6820,N,07236.6604,E,163349.000,A,A*5A

$GPGSA,A,3,15,13,29,20,10,21,,,,,,,1.69,1.43,0.90*0E

$GPGSV,3,1,12,29,74,147,34,20,59,301,20,15,58,083,33,21,42,332,23*7F

$GPGSV,3,2,12,13,28,055,24,10,24,250,14,26,17,282,18,25,15,196,*7E

$GPGSV,3,3,12,16,08,309,,24,08,138,,05,01,050,,193,,,*71

$GPRMC,163349.000,A,2311.6820,N,07236.6604,E,0.31,81.47,160518,,,A*5E

$GPVTG,81.47,T,,M,0.31,N,0.57,K,A*07

$GPGGA,163350.000,2311.6820,N,07236.6606,E,1,6,1.43,137.6,M,-56.4,M,,*7C

$GPGLL,2311.6820,N,07236.6606,E,163350.000,A,A*50

$GPGSA,A,3,15,13,29,20,10,21,,,,,,,1.69,1.43,0.90*0E

$GPGSV,3,1,12,29,74,147,34,20,59,301,20,15,58,082,33,21,42,332,23*7E

$GPGSV,3,2,12,13,28,055,24,10,24,250,17,26,17,282,19,25,15,196,*7C

$GPGSV,3,3,12,16,08,309,,24,08,138,,05,01,050,,193,,,*71

$GPRMC,163350.000,A,2311.6820,N,07236.6606,E,0.34,81.78,160518,,,A*5D

$GPVTG,81.78,T,,M,0.34,N,0.64,K,A*0E

$GPGGA,163351.000,2311.6820,N,07236.6607,E,1,6,1.43,137.6,M,-56.4,M,,*7C

$GPGLL,2311.6820,N,07236.6607,E,163351.000,A,A*50

$GPGSA,A,3,15,13,29,20,10,21,,,,,,,1.69,1.43,0.90*0E

$GPGSV,3,1,12,29,74,147,34,20,59,301,20,15,58,082,33,21,42,332,23*7E

$GPGSV,3,2,12,13,28,055,24,10,24,250,15,26,17,282,19,25,15,196,*7E

$GPGSV,3,3,12,16,08,308,,24,08,138,,05,01,050,,193,,,*70

$GPRMC,163351.000,A,2311.6820,N,07236.6607,E,0.39,77.05,160518,,,A*53

$GPVTG,77.05,T,,M,0.39,N,0.72,K,A*07

$GPGGA,163352.000,2311.6820,N,07236.6608,E,1,6,1.43,137.6,M,-56.4,M,,*70

$GPGLL,2311.6820,N,07236.6608,E,163352.000,A,A*5C

$GPGSA,A,3,15,13,29,20,10,21,,,,,,,1.69,1.43,0.90*0E

$GPGSV,3,1,12,29,74,147,34,20,59,301,20,15,58,082,33,21,42,332,23*7E

$GPGSV,3,2,12,13,28,055,24,10,24,250,17,26,17,282,19,25,15,196,*7C

$GPGSV,3,3,12,16,08,308,,24,08,138,,05,01,050,,193,,,*70

$GPRMC,163352.000,A,2311.6820,N,07236.6608,E,0.36,78.78,160518,,,A*55

$GPVTG,78.78,T,,M,0.36,N,0.68,K,A*06

$GPGGA,163353.000,2311.6820,N,07236.6609,E,1,6,1.43,137.6,M,-56.4,M,,*70

$GPGLL,2311.6820,N,07236.6609,E,163353.000,A,A*5C

$GPGSA,A,3,15,13,29,20,10,21,,,,,,,1.69,1.43,0.90*0E

$GPGSV,3,1,12,29,74,147,34,20,59,301,20,15,58,082,33,21,42,332,23*7E

$GPGSV,3,2,12,13,28,055,24,10,24,250,16,26,17,282,19,25,15,196,*7D

$GPGSV,3,3,12,16,08,308,,24,08,138,,05,01,050,,193,,,*70

$GPRMC,163353.000,A,2311.6820,N,07236.6609,E,0.36,89.36,160518,,,A*51

$GPVTG,89.36,T,,M,0.36,N,0.67,K,A*0D

$GPGGA,163354.000,2311.6820,N,07236.6610,E,1,6,1.43,137.6,M,-56.4,M,,*7F

$GPGLL,2311.6820,N,07236.6610,E,163354.000,A,A*53

$GPGSA,A,3,15,13,29,20,10,21,,,,,,,1.69,1.43,0.90*0E

$GPGSV,3,1,12,29,74,147,34,20,59,301,19,15,58,082,33,21,42,332,23*74

$GPGSV,3,2,12,13,28,055,24,10,24,250,16,26,17,282,19,25,15,196,*7D

$GPGSV,3,3,12,16,08,308,,24,08,138,,05,01,050,,193,,,*70

$GPRMC,163354.000,A,2311.6820,N,07236.6610,E,0.39,102.35,160518,,,A*60

$GPVTG,102.35,T,,M,0.39,N,0.72,K,A*37

$GPGGA,163355.000,2311.6820,N,07236.6611,E,1,6,1.43,137.6,M,-56.4,M,,*7F

$GPGLL,2311.6820,N,07236.6611,E,163355.000,A,A*53

$GPGSA,A,3,15,13,29,20,10,21,,,,,,,1.69,1.43,0.90*0E

$GPGSV,3,1,12,29,74,147,34,20,59,302,19,15,58,082,33,21,42,332,23*77

$GPGSV,3,2,12,13,28,055,24,10,24,250,16,26,17,282,19,25,15,196,*7D

$GPGSV,3,3,12,16,08,308,,24,08,138,,05,01,050,,193,,,*70

$GPRMC,163355.000,A,2311.6820,N,07236.6611,E,0.44,103.57,160518,,,A*6F

$GPVTG,103.57,T,,M,0.44,N,0.81,K,A*34

$GPGGA,163356.000,2311.6820,N,07236.6613,E,1,6,1.43,137.6,M,-56.4,M,,*7E

$GPGLL,2311.6820,N,07236.6613,E,163356.000,A,A*52

$GPGSA,A,3,15,13,29,20,10,21,,,,,,,1.69,1.43,0.90*0E

$GPGSV,3,1,12,29,74,147,34,20,59,302,19,15,58,082,33,21,42,332,23*77

$GPGSV,3,2,12,13,28,055,24,10,24,250,16,26,17,282,19,25,15,196,*7D

$GPGSV,3,3,12,16,08,308,,24,08,138,,05,01,050,,193,,,*70

$GPRMC,163356.000,A,2311.6820,N,07236.6613,E,0.56,110.52,160518,,,A*6A

$GPVTG,110.52,T,,M,0.56,N,1.03,K,A*3B

$GPGGA,163357.000,2311.6819,N,07236.6614,E,1,6,1.43,137.6,M,-56.4,M,,*72

$GPGLL,2311.6819,N,07236.6614,E,163357.000,A,A*5E

$GPGSA,A,3,15,13,29,20,10,21,,,,,,,1.69,1.43,0.90*0E

$GPGSV,3,1,12,29,74,147,34,20,59,302,18,15,58,082,33,21,42,332,23*76

$GPGSV,3,2,12,13,28,055,24,10,24,250,16,26,17,282,19,25,15,196,*7D

$GPGSV,3,3,12,16,08,308,,24,08,138,,05,01,050,,193,,,*70

$GPRMC,163357.000,A,2311.6819,N,07236.6614,E,0.58,126.90,160518,,,A*63

$GPVTG,126.90,T,,M,0.58,N,1.07,K,A*3A

$GPGGA,163358.000,2311.6818,N,07236.6616,E,1,6,1.43,137.6,M,-56.4,M,,*7E

$GPGLL,2311.6818,N,07236.6616,E,163358.000,A,A*52

$GPGSA,A,3,15,13,29,20,10,21,,,,,,,1.69,1.43,0.90*0E

$GPGSV,3,1,12,29,74,147,34,20,59,302,18,15,58,082,33,21,42,332,23*76

$GPGSV,3,2,12,13,28,055,24,10,24,250,16,26,17,282,19,25,15,196,*7D

$GPGSV,3,3,12,16,08,308,,24,08,138,,05,01,050,,193,,,*70

$GPRMC,163358.000,A,2311.6818,N,07236.6616,E,0.61,121.56,160518,,,A*68

$GPVTG,121.56,T,,M,0.61,N,1.13,K,A*38

$GPGGA,163359.000,2311.6814,N,07236.6616,E,1,6,1.43,137.3,M,-56.4,M,,*76

$GPGLL,2311.6814,N,07236.6616,E,163359.000,A,A*5F

$GPGSA,A,3,15,13,29,20,10,21,,,,,,,1.69,1.43,0.90*0E

$GPGSV,3,1,12,29,74,147,34,20,59,302,18,15,58,082,33,21,42,332,23*76

$GPGSV,3,2,12,13,28,055,24,10,24,250,16,26,17,282,19,25,15,196,*7D

$GPGSV,3,3,12,16,08,308,,24,08,138,,05,01,050,,193,,,*70

$GPRMC,163359.000,A,2311.6814,N,07236.6616,E,0.59,128.07,160518,,,A*63

$GPVTG,128.07,T,,M,0.59,N,1.10,K,A*3D

$GPGGA,163400.000,2311.6810,N,07236.6614,E,1,6,1.43,137.0,M,-56.4,M,,*78

$GPGLL,2311.6810,N,07236.6614,E,163400.000,A,A*52

$GPGSA,A,3,15,13,29,20,10,21,,,,,,,1.69,1.43,0.90*0E

$GPGSV,3,1,12,29,74,147,34,20,59,302,18,15,58,082,33,21,42,332,23*76

$GPGSV,3,2,12,13,28,055,24,10,24,250,16,26,17,282,19,25,14,196,*7C

$GPGSV,3,3,12,16,08,308,,24,08,138,,05,01,050,,193,,,*70

$GPRMC,163400.000,A,2311.6810,N,07236.6614,E,0.52,147.33,160518,,,A*6B

$GPVTG,147.33,T,,M,0.52,N,0.96,K,A*37

$GPGGA,163401.000,2311.6807,N,07236.6614,E,1,6,1.43,136.7,M,-56.4,M,,*79

$GPGLL,2311.6807,N,07236.6614,E,163401.000,A,A*55

$GPGSA,A,3,15,13,29,20,10,21,,,,,,,1.69,1.43,0.90*0E

$GPGSV,3,1,12,29,74,147,34,20,59,302,18,15,58,082,33,21,42,332,23*76

$GPGSV,3,2,12,13,28,055,24,10,24,250,17,26,17,282,19,25,14,196,*7D

$GPGSV,3,3,12,16,08,308,,24,08,138,,05,01,050,,193,,,*70

$GPRMC,163401.000,A,2311.6807,N,07236.6614,E,0.52,143.19,160518,,,A*60

$GPVTG,143.19,T,,M,0.52,N,0.97,K,A*3A

$GPGGA,163402.000,2311.6804,N,07236.6613,E,1,6,1.43,136.4,M,-56.4,M,,*7D

$GPGLL,2311.6804,N,07236.6613,E,163402.000,A,A*52

$GPGSA,A,3,15,13,29,20,10,21,,,,,,,1.69,1.43,0.90*0E

$GPGSV,3,1,12,29,74,147,34,20,59,302,18,15,58,082,33,21,42,332,23*76

$GPGSV,3,2,12,13,28,055,24,10,24,250,18,26,17,282,19,25,14,196,*72

$GPGSV,3,3,12,16,08,308,,24,08,138,,05,01,050,,193,,,*70

$GPRMC,163402.000,A,2311.6804,N,07236.6613,E,0.50,141.63,160518,,,A*6A

$GPVTG,141.63,T,,M,0.50,N,0.93,K,A*33

$GPGGA,163403.000,2311.6800,N,07236.6611,E,1,6,1.43,136.1,M,-56.4,M,,*7F

$GPGLL,2311.6800,N,07236.6611,E,163403.000,A,A*55

$GPGSA,A,3,15,13,29,20,10,21,,,,,,,1.69,1.43,0.90*0E

$GPGSV,3,1,12,29,74,147,34,20,59,302,18,15,58,082,33,21,42,332,22*77

$GPGSV,3,2,12,13,28,055,24,10,24,250,18,26,17,282,18,25,14,196,*73

$GPGSV,3,3,12,16,08,308,,24,08,138,,05,01,050,,193,,,*70

$GPRMC,163403.000,A,2311.6800,N,07236.6611,E,0.48,150.37,160518,,,A*65

$GPVTG,150.37,T,,M,0.48,N,0.90,K,A*38

$GPGGA,163404.000,2311.6799,N,07236.6611,E,1,6,1.43,136.1,M,-56.4,M,,*77

$GPGLL,2311.6799,N,07236.6611,E,163404.000,A,A*5D

$GPGSA,A,3,15,13,29,20,10,21,,,,,,,1.69,1.43,0.90*0E

$GPGSV,3,1,12,29,74,148,34,20,59,302,18,15,58,082,33,21,42,332,22*78

$GPGSV,3,2,12,13,28,055,24,10,24,250,18,26,17,282,18,25,14,196,*73

$GPGSV,3,3,12,16,08,308,,24,08,138,,05,01,050,,193,,,*70

$GPRMC,163404.000,A,2311.6799,N,07236.6611,E,0.42,168.00,160518,,,A*68

$GPVTG,168.00,T,,M,0.42,N,0.79,K,A*3A

$GPGGA,163405.000,2311.6798,N,07236.6612,E,1,6,1.43,136.1,M,-56.4,M,,*74

$GPGLL,2311.6798,N,07236.6612,E,163405.000,A,A*5E

$GPGSA,A,3,15,13,29,20,10,21,,,,,,,1.69,1.43,0.90*0E

$GPGSV,3,1,12,29,74,148,34,20,59,302,18,15,58,082,33,21,42,332,21*7B

$GPGSV,3,2,12,13,28,055,24,10,24,250,18,26,17,282,18,25,14,196,*73

$GPGSV,3,3,12,16,08,308,,24,08,138,,05,01,050,,193,,,*70

$GPRMC,163405.000,A,2311.6798,N,07236.6612,E,0.41,162.06,160518,,,A*64

$GPVTG,162.06,T,,M,0.41,N,0.77,K,A*3B

$GPGGA,163406.000,2311.6797,N,07236.6612,E,1,6,1.43,136.1,M,-56.4,M,,*78

$GPGLL,2311.6797,N,07236.6612,E,163406.000,A,A*52

$GPGSA,A,3,15,13,29,20,10,21,,,,,,,1.69,1.43,0.90*0E

$GPGSV,3,1,12,29,74,148,34,20,59,302,18,15,58,082,33,21,42,332,21*7B

$GPGSV,3,2,12,13,28,055,24,10,24,250,19,26,17,282,18,25,14,196,*72

$GPGSV,3,3,12,16,08,308,,24,08,138,,05,01,050,,193,,,*70

$GPRMC,163406.000,A,2311.6797,N,07236.6612,E,0.38,165.70,160518,,,A*60

$GPVTG,165.70,T,,M,0.38,N,0.70,K,A*34

$GPGGA,163407.000,2311.6796,N,07236.6612,E,1,6,1.43,136.1,M,-56.4,M,,*78

$GPGLL,2311.6796,N,07236.6612,E,163407.000,A,A*52

$GPGSA,A,3,15,13,29,20,10,21,,,,,,,1.69,1.43,0.90*0E

$GPGSV,3,1,12,29,74,148,34,20,59,302,18,15,58,082,33,21,42,332,20*7A

$GPGSV,3,2,12,13,28,055,24,10,24,250,19,26,17,282,17,25,14,196,*7D

$GPGSV,3,3,12,16,08,308,,24,08,138,,05,01,050,,193,,,*70

$GPRMC,163407.000,A,2311.6796,N,07236.6612,E,0.29,156.55,160518,,,A*67

$GPVTG,156.55,T,,M,0.29,N,0.53,K,A*32
