$GPGGA,084629.000,2306.4110,N,07235.6354,E,1,6,1.23,134.9,M,-56.7,M,,*79

$GPGLL,2306.4110,N,07235.6354,E,084629.000,A,A*5C

$GPGSA,A,3,15,29,02,05,25,12,,,,,,,1.54,1.23,0.92*05

$GPGSV,2,1,08,25,59,267,19,05,58,045,38,12,49,184,38,29,37,332,27*70

$GPGSV,2,2,08,193,31,059,31,02,30,045,27,15,18,169,34,24,02,189,*43

$GPRMC,084629.000,A,2306.4110,N,07235.6354,E,0.03,258.91,030818,,,A*6D

$GPVTG,258.91,T,,M,0.03,N,0.06,K,A*3F

$GPGGA,084630.000,2306.4110,N,07235.6354,E,1,6,1.23,134.8,M,-56.7,M,,*70

$GPGLL,2306.4110,N,07235.6354,E,084630.000,A,A*54

$GPGSA,A,3,15,29,02,05,25,12,,,,,,,1.54,1.23,0.92*05

$GPGSV,2,1,08,25,59,267,38,05,58,045,38,12,48,184,37,29,37,332,27*7D

$GPGSV,2,2,08,193,31,059,31,02,30,045,28,15,18,169,33,24,02,189,*4B

$GPRMC,084630.000,A,2306.4110,N,07235.6354,E,0.27,69.69,030818,,,A*54

$GPVTG,69.69,T,,M,0.27,N,0.49,K,A*05

$GPGGA,084631.000,2306.4110,N,07235.6355,E,1,6,1.23,134.8,M,-56.7,M,,*70

$GPGLL,2306.4110,N,07235.6355,E,084631.000,A,A*54

$GPGSA,A,3,15,29,02,05,25,12,,,,,,,1.54,1.23,0.92*05

$GPGSV,2,1,08,25,59,267,31,05,58,045,38,12,48,184,36,29,37,332,27*75

$GPGSV,2,2,08,193,31,059,32,02,30,045,28,15,18,169,33,24,02,189,*48

$GPRMC,084631.000,A,2306.4110,N,07235.6355,E,0.19,50.68,030818,,,A*52

$GPVTG,50.68,T,,M,0.19,N,0.36,K,A*0B

$GPGGA,084632.000,2306.4110,N,07235.6356,E,1,6,1.23,134.8,M,-56.7,M,,*70

$GPGLL,2306.4110,N,07235.6356,E,084632.000,A,A*54

$GPGSA,A,3,15,29,02,05,25,12,,,,,,,1.54,1.23,0.92*05

$GPGSV,2,1,08,25,59,267,33,05,58,045,38,12,48,184,36,29,37,332,26*76

$GPGSV,2,2,08,193,31,059,31,02,30,045,27,15,18,169,33,24,02,189,*44

$GPRMC,084632.000,A,2306.4110,N,07235.6356,E,0.19,1.31,030818,,,A*6A

$GPVTG,1.31,T,,M,0.19,N,0.34,K,A*31

$GPGGA,084633.000,2306.4111,N,07235.6356,E,1,6,1.32,134.8,M,-56.7,M,,*70

$GPGLL,2306.4111,N,07235.6356,E,084633.000,A,A*54

$GPGSA,A,3,15,29,02,05,25,12,,,,,,,2.71,1.32,2.37*0C

$GPGSV,2,1,08,25,59,267,41,05,58,045,36,12,48,184,38,29,37,332,26*73

$GPGSV,2,2,08,193,31,059,29,02,30,045,26,15,18,168,35,24,02,189,*4B

$GPRMC,084633.000,A,2306.4111,N,07235.6356,E,0.29,156.83,030818,,,A*63

$GPVTG,156.83,T,,M,0.29,N,0.53,K,A*39

$PMTK011,MTKGPS*08

$PMTK010,001*2E

$PMTK010,002*2D

$GPGGA,084634.415,,,,,0,0,,,M,,M,,*45

$GPGLL,,,,,084634.415,V,N*77

$GPGSA,A,1,,,,,,,,,,,,,,,*1E

$GPGSV,2,1,08,05,58,045,,25,58,267,,12,48,184,,29,37,332,*7D

$GPGSV,2,2,08,193,31,059,,02,30,045,,15,18,168,,24,02,189,*42

$GPRMC,084634.415,V,,,,,0.00,0.00,030818,,,N*42

$GPVTG,0.00,T,,M,0.00,N,0.00,K,N*32

¤ÕÔT	84635.399,,,,,0,4,,,M,,M,,*43

$GPGLL,,,,,084675.399,^,N*75

$GPGSA,A,1,,,,,,,,,,,,,,,*1E

$GPGSV,2,1,08,05,58,045,26,25,58,267,40,12,48,184,39,29,37,332,*77

$GPGSV,2,2,08,193,31,059,30,02,30,045,,15,18,168,37,24,02,189,*45

$GPRMC,ðç6?5.399,V,,,,,2.92,224.20,030818,,,N*4F

$GPVTG,224.20,T,,M,2.92,N,5.41,K,N*3D

$GPGGA,084636.399,2306.4144,N,07235.6362,E,1,6,1.23,93.4,M,-56.7,M,,*41

$GPGLL,2306.4144,N,07235.6362,E,084636.399,A,A*55

$GPGSA,A,3,05,25,12,29,02,15,,,,,,,1.54,1.23,0.92*05

$GPGSV,2,1,08,05,58,045,29,25,58,267,43,12,48,184,41,29,37,332,27*71

$GPGSV,2,2,08,193þ$PMTK011,MTKGPS*08

$PMTK010,001*2E

$PMTK010,002*2D

$GPGGA,084637.709,,,,,0,0,,,M,,M,,*48

$GPGLL,,,,,084637.709,V,N*7A

$GPGSAü$PMTK011,MTKGPS*08

$PMTK010,001*2E

$PMTK010,002*2D

$GPGGA,084639.046,,,,,0,0,,,M,,M,,*4A

$GPGLL,,,,,084639.046,V,N*78

$GPGSA,A,1,,,,,,,,,,,,,,,*1E

$GPGSV,2,1,08,05,58,045,,25,58,267,,12,48,184,,29,37,332,*7D

$GPGSV,2,2,08,193,31,059,,02,30,045,,15,18,168,,24<02,189,*42

$GPRMC,084639.046,V,,,,,0.00,0.00,030818,,,N*4D

$GPvTG,0.00,T,,M,0.00,N,0.00,K,N*32

$GPGGA,084640.030,2306.4053,N,07235.6464,E,1,4,1.83,135.1,M,-56.7,M,,*76

$GPGLL,2306.4053,N,07235.6464,E,084640.030,A,A*52

$GPGSA,A,3,25,12,15,05,,,,,,,,,2.07,1.83,0.98*09

$GPGSV,2,1,08,05,58,045,31,25,58,267,42,12,48,184,28,29,37,332,*73

$GPGSV,2,2,08,193,31,059,25,02,30,045,,15,18,168,37,24,02,189,*41

$GPRMC,084640.030,A,2306.4053,N,07235.6464,E,5.65,287.40,030818,,,A*68

$GPVTG,287.40,T,,M,5.65,N,10.48,K,A*0F

$GPGGA,084641.031,2306.4030,N,07235.6448,E,1,4,1.83,134.7,M,-56.7,M,,*7A

$GPGLL,2306.4030,N,07235.6448,E,084641.031,A,A*59

$GPGSA,A,3,25,12,15,05,,,,,,,,,2.07,1.83,0.98*09

$GPGSV,2,1,08,05,58,045,25,25,58,267,24,12,48,184,24,29,37,332,*7A

$GPGSV,2,2,08,193,31,059,19,02,30,045,,15,18,168,24,24,02,189,*4C

$GPRMC,084641.031,A,2306.4030,N,07235.6448,E,2.12,293.43,030818,ü$PMTK011,MTKGPS*08

$PMTK010,001*2E

$PMTK010,002*2D

$GPGGA,084643.031,,,,,0,0,,,M,,M,,*47

$GPGLL,,,,,084643.031,V,N*75

$GPGSA,A,1,,,,,,,,,,,,,,,*1E

$GPGSV,2,1,08,05,58,045,,25,58,267,,12,48,184,,29,37,332,*7D

$GPGSV,2,2,08,193,31,059,,02,30,045,,15,18,168,,24,02,189,*42

$GPRMC,084643.031,V,,,,,0.00,0.00,030818,,,N*40

$GPVTG,0.00,T,,M,0.00,N,0.00,K,N*32

$GPGGA,084644.015,2306.4137,N,07235.6272,E,1,5,1.57,135.4,M,-56.7,M,,*7A

$GPGLL,2306.4137,N,07235.6272,E,084644.015,A,A*53

$GPGSA,A,3,05,25,12,02,15,,,,,,,,1.84,1.57,0.96*04

$GPGSV,2,1,08,05,58,045,38,25,58,267,36,12,48,184,35,29,37,332,*75

$GPGSV,2,2,08,193,31,059,27,02,30,045,26,15,18,168,27,24,02,189,*46

$GPRMC,084644.015,A,2306.4137,N,07235.6272,E,1.84,272.29,030818,,,A*67

$GPVTG,272.29,T,,M,1.84,N,3.40,K,A*3B

$GPGGA,084645.015,2306.4179,N,07235.6313,E,1,6,1.23,87.4,M,-56.7,M,,*4F

$GPGLL,2306.4179,N,07235.6313,E,084645.015,A,A*5E

$GPGSA,A,3,05,25,12,29,02,15,,,,,,,1.54,1.23,0.92*05

$GPGSV,2,1,08,05,58ÿ$PMTë$PMTK011,MTKGPS*08

$PMTK010,001*2E

$PMTK010,002*2D

$GPGGA,084647.944,,,,,0,0,,,M,,M,,*48

$GPGLL,,,,,084647.944,V,N*7A

$GPGSA,A,1,,,,,,,,,,,,,,,*1E

$GPGSV,2,1,08,05,58,045,,25,58,267,,12,48,184,,29,37,332,*7D

$GPGSV,2,2,08,193,31,059,,02,30,045,,15,18,168,,24,02,189,*42

$GPRMC,084647.944,V,,,,,0.00,0.00,030818,,,N*4F

$GPVTG,0.00,T,,M,0.00,N,0.00,K,N*32

$PMTK011,MTKGPS*08

$PMTK010,001*2E

$PMTK010,002*2D

ÿ$PMTK011,MTKGPS*08

$PMTK010,001*2E

$PMTK010,002*2D

$GPGGA,084649.941,,,,,0,0,,,M,,M,,*43

$GPGLL,,,,,084649.941,V,N*71

$GPGSA,A,1,,,,,,,,,,,,,,,*1E

$GPGSV,2,1,08,05,58,045,,25,58,266,,12,48,184,,29,37,332,*7C

$GPGSV,2,2,08,193,31,059,,02,30,045,,15,18,168,,24,02,189,*42

$GPRMC,084649.941,V,,,,,0.00,0.00,030818,,,N*44

$GPVTG,0.00,T,,M,0.00,N,0.00,K,N*32

$GPGGA,084650.925,2306.4349,N,07235.6257,E,1,5,1.43,134.7,M,-56.7,M,,*7E

$GPGLL,2306.4349,N,07235.6257,E,084650.925,A,A*50

$GPGSA,A,3,05,25,12,29,02,,,,,,,,1.72,1.43,0.97*06

$GPGSV,2,1,08,05,58,045,31,25,58,266,37,12,48,184,25,29,37,332,29*76

$GPGSV,2,2,08,193,31,059,,02,30,045,21,15,18,168,,24,02,189,*41

$GPRMC,084650.925,A,2306.4349,N,07235.6257,E,1.16,206.79,030818,,,A*69

$GPVTG,206.79,T,,M,1.16,N,2.15,K,A*37

$GPGGA,084651.925,,,,,0,6,,,M,,M,,*4E

$GPGLL,,,,,084651.925,V,N*7A

$GPGSA,A,1,,,,,,,,,,,,,,,*1E

$GPGSV,2,1,08,05,58,045,26,25,58,266,37,12,48,184,21,29,37,332,23*7E

$GPGSV,2,2,08,193,31,059,,02,30,045,31,15,18,168,25,24,02,189,*47

$GPRMC,084651.925,V,,,,,1.23,24.34,030818,,,N*7E

$GPVTG,24.34,T,,M,1.23,N,2.28,K,N*0B

$GPGGA,084652.925,2306.4126,N,07235.6496,E,1,6,1.23,132.3,M,-56.7,M,,*7B

$GPGLL,2306.4126,N,07235.6496,E,084652.925,A,A*52

$GPGSA,A,3,05,25,12,29,02,15,,,,,,,1.54,1.23,0.92*05

$GPGSV,2,1,08,05,58,045,29,25,58,266,32,12,48,184,31,29,37,332,29*7F

$GPGSV,2,2,08,193,31,059,24,02,30,045,26,15,18,168,26,24,02,189,*44

$GPRMC,084652.925,A,2306.4126,N,07235.6496,E,0.42,270.83,030818,,,A*6F

$GPVTG,270.83,T,,M,0.42,N,0.77,K,A*35

$GPGGA,084653.925,,,,,0,6,,,M,,M,,*4C

$GPGLL,,,,,084653.925,V,N*78

$GPGSA,A,1,,,,,,,,,,,,,,,*1E

$GPGSV,2,1,08,05,58,045,23,25,58,266,24,12,48,184,25,29,37,332,40*78

$GPGSV,2,2,08,193,31,059,19,02,30,045,26,15,18,168,22,24,02,189,*4E

$GPRMC,084653.925,V,,,,,1.89,64.42,030818,,,N*79

$GPVTG,64.42,T,,M,1.89,N,3.51,K,N*01

$GPGGA,084654.925,2306.4135,N,07235.6377,E,1,6,1.23,131.1,M,-56.7,M,,*76

$GPGLL,2306.4135,N,07235.6377,E,084654.925,A,A*5E

$GPGSA,A,3,05,25,12,29,02,15,,,,,,,1.54,1.23,0.92*05

$GPGSV,2,1,08,05,58,045,26,25,58,266,24,12,48,184,30,29,37,332,34*7A

$GPGSV,2,2,08,193,31,059,21,02,30,045,24,15,18,168,29,24,02,189,*4C

$GPRMC,084654.925,A,2306.4135,N,07235.6377,E,0.62,69.17,030818,,,A*56

$GPVTG,69.17,T,,M,0.62,N,1.16,K,A*06

$GPGGA,084655.925,,,,,0,6,,,M,,M,,*4A

$GPGLL,,,,,084655.925,V,N*7E

$GPGSA,A,1,,,,,,,,,,,,,,,*1E

$GPGSV,2,1,08,05,58,045,23,25,58,266,32,12,48,184,29,29,37,332,35*71

$GPGSV,2,2,08,193,31,059,25,02,30,045,25,15,18,168,33,24,02,189,*42

$GPRMC,084655.925,V,,,,,1.28,98.24,030818,,,N*77

$GPVTG,98.24,T,,M,1.28,N,2.38,K,N*07

$GPGGA,084656.925,2306.4194,N,07235.6491,E,1,6,1.23,127.5,M,-56.7,M,,*73

$GPGLL,2306.4194,N,07235.6491,E,084656.925,A,A*58

$GPGSA,A,3,05,25,12,29,02,15,,,,,,,1.54,1.23,0.92*05

$GPGSV,2,1,08,05,58,045,23,25,58,266,33,12,48,184,29,29,37,332,34*71

$GPGSV,2,2,08,193,31,059,21,02,30,045,24,15,18,168,32,24,02,189,*46

$GPRMC,084656.925,A,2306.4194,N,07235.6491,E,0.17,27.52,030818,,,A*59

$GPVTG,27.52,T,,M,0.17,N,0.31,K,A*0B

$GPGGA,084657.925,,,,,0,6,,,M,,M,,*48

$GPGLL,,,,,084657.925,V,N*7C

$GPGSA,A,1,,,,,,,,,,,,,,,*1E

$GPGSV,2,1,08,05,58,045,25,25,58,266,34,12,48,184,28,29,37,332,34*71

$GPGSV,2,2,08,193,31,059,20,02,30,045,24,15,18,168,30,24,02,189,*45

$GPRMC,084657.925,V,,,,,0.92,218.32,030818,,,N*48

$GPVTG,218.32,T,,M,0.92,N,1.70,K,N*35

$GPGGA,084658.925,2306.4202,N,07235.6416,E,1,6,1.23,125.9,M,-56.7,M,,*70

$GPGLL,2306.4202,N,07235.6416,E,084658.925,A,A*55

$GPGSA,A,3,05,25,12,29,02,15,,,,,,,1.54,1.23,0.92*05

$GPGSV,2,1,08,05,58,045,25,25,58,266,35,12,48,184,28,29,37,332,27*72

$GPGSV,2,2,08,193,31,059,20,02,30,045,25,15,18,168,29,24,02,189,*4C

$GPRMC,084658.925,A,2306.4202,N,07235.6416,E,1.44,83.25,030818,,,A*5D

$GPVTG,83.25,T,,M,1.44,N,2.66,K,A*02

$GPGGA,084659.925,,,,,0,6,,,M,,M,,*46

$GPGLL,,,,,084659.925,V,N*72

$GPGSA,A,1,,,,,,,,,,,,,,,*1E

$GPGSV,2,1,08,05,58,045,26,25,58,266,36,12,48,184,27,29,37,332,27*7D

$GPGSV,2,2,08,193,31,059,20,02,30,045,25,15,18,168,27,24,02,189,*42

$GPRMC,084659.925,V,,,,,0.43,105.72,030818,,,N*41

$GPVTG,105.72,T,,M,0.43,N,0.79,K,N*3A

$GPGGA,084700.925,2306.4157,N,07235.6412,E,1,6,1.23,120.7,M,-56.7,M,,*70

$GPGLL,2306.4157,N,07235.6412,E,084700.925,A,A*5E

$GPGSA,A,3,05,25,12,29,02,15,,,,,,,1.54,1.23,0.92*05

$GPGSV,2,1,08,05,58,045,27,25,58,266,37,12,48,184,20,29,37,332,28*75

$GPGSV,2,2,08,193,31,059,19,02,30,045,25,15,18,168,20,24,02,189,*4F

$GPRMC,084700.925,A,2306.4157,N,07235.6412,E,0.55,138.17,030818,,,A*67

$GPVTG,138.17,T,,M,0.55,N,1.01,K,A*31

$GPGGA,084701.925,,,,,0,6,,,M,,M,,*4A

$GPGLL,,,,,084701.925,V,N*7E

$GPGSA,A,1,,,,,,,,,,,,,,,*1E

$GPGSV,2,1,08,05,58,045,29,25,58,266,37,12,48,184,27,29,37,332,28*7C

$GPGSV,2,2,08,193,31,059,18,02,30,045,27,15,18,168,20,24,02,189,*4C

$GPRMC,084701.925,V,,,,,1.11,137.50,030818,,,N*4A

$GPVTG,137.50,T,,M,1.11,N,2.07,K,N*36

$GPGGA,084702.925,2306.4196,N,07235.6378,E,1,6,1.23,123.0,M,-56.7,M,,*70

$GPGLL,2306.4196,N,07235.6378,E,084702.925,A,A*5A

$GPGSA,A,3,05,25,12,29,02,15,,,,,,,1.54,1.23,0.92*05

$GPGSV,2,1,08,05,58,045,20,25,58,266,36,12,48,184,26,29,37,332,30*7C

$GPGSV,2,2,08,193,31,059,25,02,30,045,28,15,18,168,30,24,02,189,*4C

$GPRMC,084702.925,A,2306.4196,N,07235.6378,E,0.35,42.74,030818,,,A*5C

$GPVTG,42.74,T,,M,0.35,N,0.64,K,A*0C

$GPGGA,084703.925,,,,,0,6,,,M,,M,,*48

$GPGLL,,,,,084703.925,V,N*7C

$GPGSA,A,1,,,,,,,,,,,,,,,*1E

$GPGSV,2,1,08,05,58,045,21,25,58,266,36,12,48,184,19,29,37,332,30*71

$GPGSV,2,2,08,193,31,059,25,02,30,045,26,15,18,168,31,24,02,189,*43

$GPRMC,084703.925,V,,,,,0.46,268.33,030818,,,N*47

$GPVTG,268.33,T,,M,0.46,N,0.84,K,N*30

$GPGGA,084704.925,2306.4199,N,07235.6333,E,1,6,1.23,118.2,M,-56.7,M,,*7C

$GPGLL,2306.4199,N,07235.6333,E,084704.925,A,A*5C

$GPGSA,A,3,05,25,12,29,02,15,,,,,,,1.54,1.23,0.92*05

$GPGSV,2,1,08,05,58,045,23,25,58,266,36,12,48,184,20,29,37,332,30*79

$GPGSV,2,2,08,193,31,059,26,02,30,045,24,15,18,168,31,24,02,189,*42

$GPRMC,084704.925,A,2306.4199,N,07235.6333,E,0.47,91.10,030818,,,A*53

$GPVTG,91.10,T,,M,0.47,N,0.87,K,A*08

$GPGGA,084705.925,,,,,0,6,,,M,,M,,*4E

$GPGLL,,,,,084705.925,V,N*7A

$GPGSA,A,1,,,,,,,,,,,,,,,*1E

$GPGSV,2,1,08,05,58,045,24,25,58,266,36,12,48,184,22,29,37,332,31*7D

$GPGSV,2,2,08,193,31,059,25,02,30,045,33,15,18,168,31,24,02,189,*47

$GPRMC,084705.925,V,,,,,0.75,162.13,030818,,,N*4A

$GPVTG,162.13,T,,M,0.75,N,1.39,K,N*3C

$GPGGA,084706.925,2306.4180,N,07235.6332,E,1,6,1.23,113.1,M,-56.7,M,,*7F

$GPGLL,2306.4180,N,07235.6332,E,084706.925,A,A*57

$GPGSA,A,3,05,25,12,29,02,15,,,,,,,1.54,1.23,0.92*05

$GPGSV,2,1,08,05,58,045,24,25,58,266,35,12,48,184,31,29,37,332,32*7F

$GPGSV,2,2,08,193,31,059,26,02,30,045,33,15,18,168,22,24,02,189,*46

$GPRMC,084706.925,A,2306.4180,N,07235.6332,E,0.24,194.44,030818,,,A*68

$GPVTG,194.44,T,,M,0.24,N,0.45,K,A*36

$GPGGA,084707.925,,,,,0,6,,,M,,M,,*4C

$GPGLL,,,,,084707.925,V,N*78

$GPGSA,A,1,,,,,,,,,,,,,,,*1E

$GPGSV,2,1,08,05,58,045,24,25,58,266,20,12,48,184,31,29,37,332,31*78

$GPGSV,2,2,08,193,31,059,19,02,30,045,32,15,18,168,24,24,02,189,*4D

$GPRMC,084707.925,V,,,,,0.51,51.14,030818,,,N*78

$GPVTG,51.14,T,,M,0.51,N,0.95,K,N*0B

$GPGGA,084708.925,2306.4186,N,07235.6326,E,1,6,1.23,115.1,M,-56.7,M,,*74

$GPGLL,2306.4186,N,07235.6326,E,084708.925,A,A*5A

$GPGSA,A,3,05,25,12,29,02,15,,,,,,,1.54,1.23,0.92*05

$GPGSV,2,1,08,05,58,045,23,25,58,266,31,12,48,184,21,29,37,332,31*7E

$GPGSV,2,2,08,193,31,059,20,02,30,045,30,15,18,168,25,24,02,189,*44

$GPRMC,084708.925,A,2306.4186,N,07235.6326,E,0.29,233.54,030818,,,A*67

$GPVTG,233.54,T,,M,0.29,N,0.54,K,A*34

$GPGGA,084709.925,,,,,0,6,,,M,,M,,*42

$GPGLL,,,,,084709.925,V,N*76

$GPGSA,A,1,,,,,,,,,,,,,,,*1E

$GPGSV,2,1,08,05,58,045,24,25,58,266,33,12,48,184,23,29,37,332,30*78

$GPGSV,2,2,08,193,31,059,22,02,30,045,29,15,18,168,24,24,02,189,*4F

$GPRMC,084709.925,V,,,,,0.35,32.22,030818,,,N*74

$GPVTG,32.22,T,,M,0.35,N,0.66,K,N*05

$GPGGA,084710.925,,,,,0,6,,,M,,M,,*4A

$GPGLL,,,,,084710.925,V,N*7E

$GPGSA,A,1,,,,,,,,,,,,,,,*1E

$GPGSV,2,1,08,05,58,045,23,25,58,266,31,12,48,184,23,29,37,332,31*7C

$GPGSV,2,2,08,193,31,059,32,02,30,045,31,15,18,168,26,24,02,189,*45

$GPRMC,084710.925,V,,,,,0.94,99.03,030818,,,N*75

$GPVTG,99.03,T,,M,0.94,N,1.74,K,N*0E

$GPGGA,084711.925,,,,,0,6,,,M,,M,,*4B

$GPGLL,,,,,084711.925,V,N*7F

$GPGSA,A,1,,,,,,,,,,,,,,,*1E

$GPGSV,2,1,08,05,58,045,24,25,58,266,29,12,48,184,22,29,37,332,23*70

$GPGSV,2,2,08,193,31,059,19,02,30,045,24,15,18,168,25,24,02,189,*4B

$GPRMC,084711.925,V,,,,,0.49,95.30,030818,,,N*78

$GPVTG,95.30,T,,M,0.49,N,0.92,K,N*0B

$GPGGA,084712.925,,,,,0,6,,,M,,M,,*48

$GPGLL,,,,,084712.925,V,N*7C

$GPGSA,A,1,,,,,,,,,,,,,,,*1E

$GPGSV,2,1,08,05,58,045,25,25,58,266,28,12,48,184,22,29,37,332,23*70

$GPGSV,2,2,08,193,31,059,18,02,30,045,23,15,18,168,26,24,02,189,*4E

$GPRMC,084712.925,V,,,,,1.08,101.72,030818,,,N*45

$GPVTG,101.72,T,,M,1.08,N,2.00,K,N*3C

$GPGGA,084713.925,,,,,0,6,,,M,,M,,*49

$GPGLL,,,,,084713.925,V,N*7D

$GPGSA,A,1,,,,,,,,,,,,,,,*1E

$GPGSV,2,1,08,05,58,045,24,25,58,266,26,12,48,184,16,29,37,332,23*78

$GPGSV,2,2,08,193,31,059,17,02,30,045,23,15,18,168,26,24,02,189,*41

$GPRMC,084713.925,V,,,,,0.32,131.30,030818,,,N*49

$GPVTG,131.30,T,,M,0.32,N,0.59,K,N*3F

$GPGGA,084714.925,2306.4173,N,07235.6308,E,1,6,1.23,116.9,M,-56.7,M,,*74

$GPGLL,2306.4173,N,07235.6308,E,084714.925,A,A*51

$GPGSA,A,3,05,25,12,29,02,15,,,,,,,1.54,1.23,0.92*05

$GPGSV,2,1,08,05,58,045,24,25,58,266,18,12,48,184,16,29,37,332,23*75

$GPGSV,2,2,08,193,31,059,17,02,30,045,22,15,18,168,25,24,02,189,*43

$GPRMC,084714.925,A,2306.4173,N,07235.6308,E,1.06,244.67,030818,,,A*60

$GPVTG,244.67,T,,M,1.06,N,1.96,K,A*37

$GPGGA,084715.925,,,,,0,6,,,M,,M,,*4F

$GPGLL,,,,,084715.925,V,N*7B

$GPGSA,A,1,,,,,,,,,,,,,,,*1E

$GPGSV,2,1,08,05,58,045,25,25,58,266,28,12,48,184,24,29,37,332,22*77

$GPGSV,2,2,08,193,31,059,17,02,30,045,21,15,18,168,25,24,02,189,*40

$GPRMC,084715.925,V,,,,,0.40,256.13,030818,,,N*49

$GPVTG,256.13,T,,M,0.40,N,0.75,K,N*37

$GPGGA,084716.925,2306.4192,N,07235.6317,E,1,6,1.23,115.8,M,-56.7,M,,*75

$GPGLL,2306.4192,N,07235.6317,E,084716.925,A,A*52

$GPGSA,A,3,05,25,12,29,02,15,,,,,,,1.54,1.23,0.92*05

$GPGSV,2,1,08,05,58,045,26,25,58,266,28,12,48,184,31,29,37,332,21*73

$GPGSV,2,2,08,193,31,059,24,02,30,045,22,15,18,168,35,24,02,189,*42

$GPRMC,084716.925,A,2306.4192,N,07235.6317,E,1.74,92.69,030818,,,A*51

$GPVTG,92.69,T,,M,1.74,N,3.23,K,A*09

$GPGGA,084717.925,,,,,0,6,,,M,,M,,*4D

$GPGLL,,,,,084717.925,V,N*79

$GPGSA,A,1,,,,,,,,,,,,,,,*1E

$GPGSV,2,1,08,05,58,045,27,25,58,266,27,12,48,184,28,29,37,332,22*76

$GPGSV,2,2,08,193,31,059,22,02,30,045,22,15,18,168,34,24,02,189,*45

$GPRMC,084717.925,V,,,,,1.70,135.66,030818,,,N*4D

$GPVTG,135.66,T,,M,1.70,N,3.16,K,N*37

$GPGGA,084718.925,,,,,0,6,,,M,,M,,*42

$GPGLL,,,,,084718.925,V,N*76

$GPGSA,A,1,,,,,,,,,,,,,,,*1E

$GPGSV,2,1,08,05,58,045,29,25,58,266,26,12,48,184,27,29,37,332,23*77

$GPGSV,2,2,08,193,31,059,21,02,30,045,22,15,18,168,25,24,02,189,*46

$GPRMC,084718.925,V,,,,,0.66,113.07,030818,,,N*47

$GPVTG,113.07,T,,M,0.66,N,1.22,K,N*37

$GPGGA,084719.925,,,,,0,6,,,M,,M,,*43

$GPGLL,,,,,084719.925,V,N*77

$GPGSA,A,1,,,,,,,,,,,,,,,*1E

$GPGSV,2,1,08,05,58,045,30,25,58,266,27,12,48,184,18,29,37,332,22*73

$GPGSV,2,2,08,193,31,059,20,02,30,045,22,15,18,168,23,24,02,189,*41

$GPRMC,084719.925,V,,,,,0.87,90.79,030818,,,N*7A

$GPVTG,90.79,T,,M,0.87,N,1.61,K,N*0C

$GPGGA,084720.925,2306.4172,N,07235.6301,E,1,6,1.23,112.7,M,-56.7,M,,*71

$GPGLL,2306.4172,N,07235.6301,E,084720.925,A,A*5E

$GPGSA,A,3,05,25,12,29,02,15,,,,,,,1.54,1.23,0.92*05

$GPGSV,2,1,08,05,58,045,31,25,58,266,26,12,48,184,31,29,37,332,22*78

$GPGSV,2,2,08,193,31,059,19,02,30,045,20,15,18,168,16,24,02,189,*4F

$GPRMC,084720.925,A,2306.4172,N,07235.6301,E,0.79,120.19,030818,,,A*6E

$GPVTG,120.19,T,,M,0.79,N,1.47,K,A*3A

$GPGGA,084721.925,,,,,0,6,,,M,,M,,*48

$GPGLL,,,,,084721.925,V,N*7C

$GPGSA,A,1,,,,,,,,,,,,,,,*1E

$GPGSV,2,1,08,05,58,045,31,25,58,266,34,12,48,184,29,29,37,332,21*71

$GPGSV,2,2,08,193,31,059,18,02,30,045,21,15,18,168,16,24,02,189,*4F

$GPRMC,084721.925,V,,,,,0.70,68.85,030818,,,N*7D

$GPVTG,68.85,T,,M,0.70,N,1.30,K,N*04

$GPGGA,084722.925,2306.4144,N,07235.6325,E,1,6,1.23,120.7,M,-56.7,M,,*71

$GPGLL,2306.4144,N,07235.6325,E,084722.925,A,A*5F

$GPGSA,A,3,05,25,12,29,02,15,,,,,,,1.54,1.23,0.92*05

$GPGSV,2,1,08,05,58,045,31,25,58,266,34,12,48,184,19,29,37,332,21*72

$GPGSV,2,2,08,193,31,059,18,02,30,045,29,15,18,168,17,24,02,189,*46

$GPRMC,084722.925,A,2306.4144,N,07235.6325,E,1.75,357.37,030818,,,A*6C

$GPVTG,357.37,T,,M,1.75,N,3.25,K,A*3F

$GPGGA,084723.925,2306.4161,N,07235.6317,E,1,6,1.23,99.3,M,-56.7,M,,*41

$GPGLL,2306.4161,N,07235.6317,E,084723.925,A,A*58

$GPGSA,A,3,05,25,12,29,02,15,,,,,,,1.54,1.23,0.92*05

$GPGSV,2,1,08,05,58,045,23,25,58,266,27,12,48,184,20,29,37,332,32*7B

$GPGSV,2,2,08,193,31,059,18,02,30,045,20,15,18,168,17,24,02,189,*4F

$GPRMC,084723.925,A,2306.4161,N,07235.6317,E,2.21,41.93,030818,,,A*53

$GPVTG,41.93,T,,M,2.21,N,4.09,K,A*0E

$GPGGA,084724.925,,,,,0,6,,,M,,M,,*4D

$GPGLL,,,,,084724.925,V,N*79

$GPGSA,A,1,,,,,,,,,,,,,,,*1E

$GPGSV,2,1,08,05,58,045,25,25,58,266,27,12,48,184,21,29,37,332,32*7C

$GPGSV,2,2,08,193,31,059,17,02,30,045,20,15,18,168,17,24,02,189,*40

$GPRMC,084724.925,V,,,,,4.59,10.93,030818,,,N*7F

$GPVTG,10.93,T,,M,4.59,N,8.51,K,N*0D

$GPGGA,084725.925,2306.4175,N,07235.6329,E,1,6,1.23,116.7,M,-56.7,M,,*7D

$GPGLL,2306.4175,N,07235.6329,E,084725.925,A,A*56

$GPGSA,A,3,05,25,12,29,02,15,,,,,,,1.54,1.23,0.92*05

$GPGSV,2,1,08,05,58,045,26,25,58,266,26,12,48,184,21,29,37,332,23*7E

$GPGSV,2,2,08,193,31,059,18,02,30,045,20,15,18,168,16,24,02,189,*4E

$GPRMC,084725.925,A,2306.4175,N,07235.6329,E,6.31,34.09,030818,,,A*59

$GPVTG,34.09,T,,M,6.31,N,11.69,K,A*38

$GPGGA,084726.925,,,,,0,6,,,M,,M,,*4F

$GPGLL,,,,,084726.925,V,N*7B

$GPGSA,A,1,,,,,,,,,,,,,,,*1E

$GPGSV,2,1,08,05,58,045,26,25,58,266,24,12,48,184,20,29,37,332,23*7D

$GPGSV,2,2,08,193,31,059,19,02,30,045,21,15,18,168,14,24,02,189,*4C

$GPRMC,084726.925,V,,,,,8.97,17.54,030818,,,N*7F

$GPVTG,17.54,T,,M,8.97,N,16.63,K,N*31

$GPGGA,084727.925,2306.4220,N,07235.6347,E,1,6,1.23,117.0,M,-56.7,M,,*72

$GPGLL,2306.4220,N,07235.6347,E,084727.925,A,A*5F

$GPGSA,A,3,05,25,12,29,02,15,,,,,,,1.54,1.23,0.92*05

$GPGSV,2,1,08,05,58,045,27,25,58,266,25,12,48,184,19,29,37,332,22*76

$GPGSV,2,2,08,193,31,059,20,02,30,045,22,15,18,168,13,24,02,189,*42

$GPRMC,084727.925,A,2306.4220,N,07235.6347,E,9.69,11.22,030818,,,A*5C

$GPVTG,11.22,T,,M,9.69,N,17.96,K,A*32

$GPGGA,084728.925,,,,,0,6,,,M,,M,,*41

$GPGLL,,,,,084728.925,V,N*75

$GPGSA,A,1,,,,,,,,,,,,,,,*1E

$GPGSV,2,1,08,05,58,045,26,25,58,266,27,12,48,184,18,29,37,332,22*74

$GPGSV,2,2,08,193,31,059,21,02,30,045,22,15,18,168,13,24,02,189,*43

$GPRMC,084728.925,V,,,,,10.36,19.05,030818,,,N*49

$GPVTG,19.05,T,,M,10.36,N,19.19,K,N*0B

$GPGGA,084729.925,,,,,0,6,,,M,,M,,*40

$GPGLL,,,,,084729.925,V,N*74

$GPGSA,A,1,,,,,,,,,,,,,,,*1E

$GPGSV,2,1,08,05,58,044,28,25,58,266,27,12,48,184,20,29,37,332,23*71

$GPGSV,2,2,08,193,31,059,21,02,30,045,22,15,18,168,14,24,02,189,*44

$GPRMC,084729.925,V,,,,,10.90,19.57,030818,,,N*43

$GPVTG,19.57,T,,M,10.90,N,20.20,K,N*00

$GPGGA,084730.925,,,,,0,6,,,M,,M,,*48

$GPGLL,,,,,084730.925,V,N*7C

$GPGSA,A,1,,,,,,,,,,,,,,,*1E

$GPGSV,2,1,08,05,58,044,27,25,58,266,26,12,48,184,21,29,37,332,22*7F

$GPGSV,2,2,08,193,31,059,20,02,30,045,20,15,18,168,16,24,02,189,*45

$GPRMC,084730.925,V,,,,,10.88,21.45,030818,,,N*4A

$GPVTG,21.45,T,,M,10.88,N,20.15,K,N*07

$GPGGA,084731.925,,,,,0,6,,,M,,M,,*49

$GPGLL,,,,,084731.925,V,N*7D

$GPGSA,A,1,,,,,,,,,,,,,,,*1E

$GPGSV,2,1,08,05,58,044,27,25,58,266,26,12,48,184,20,29,37,332,21*7D

$GPGSV,2,2,08,193,31,059,18,02,30,045,19,15,18,168,16,24,02,189,*44

$GPRMC,084731.925,V,,,,,10.87,23.52,030818,,,N*40

$GPVTG,23.52,T,,M,10.87,N,20.15,K,N*0C

$GPGGA,084732.925,,,,,0,6,,,M,,M,,*4A

$GPGLL,,,,,084732.925,V,N*7E

$GPGSA,A,1,,,,,,,,,,,,,,,*1E

$GPGSV,2,1,08,05,58,044,28,25,58,266,25,12,48,184,21,29,37,332,20*71

$GPGSV,2,2,08,193,31,059,16,02,30,045,18,15,18,168,17,24,02,189,*4A

$GPRMC,084732.925,V,,,,,10.69,19.33,030818,,,N*4D

$GPVTG,19.33,T,,M,10.69,N,19.80,K,N*04

$GPGGA,084733.925,2306.4468,N,07235.6405,E,1,5,1.42,134.4,M,-56.7,M,,*7D

$GPGLL,2306.4468,N,07235.6405,E,084733.925,A,A*51

$GPGSA,A,3,05,25,12,29,02,,,,,,,,1.72,1.42,0.97*07

$GPGSV,2,1,08,05,58,044,27,25,58,266,25,12,48,184,22,29,37,332,20*7D

$GPGSV,2,2,08,193,31,059,15,02,30,045,17,15,18,168,24,24,02,189,*46

$GPRMC,084733.925,A,2306.4468,N,07235.6405,E,10.19,25.13,030818,,,A*68

$GPVTG,25.13,T,,M,10.19,N,18.87,K,A*07

$GPGGA,084734.925,2306.4483,N,07235.6422,E,1,5,1.42,134.0,M,-56.7,M,,*7E

$GPGLL,2306.4483,N,07235.6422,E,084734.925,A,A*56

$GPGSA,A,3,05,25,12,29,02,,,,,,,,1.72,1.42,0.97*07

$GPGSV,2,1,08,05,58,044,26,25,58,266,23,12,48,184,23,29,37,332,18*70

$GPGSV,2,2,08,193,31,059,14,02,30,045,17,15,18,168,22,24,02,189,*41

$GPRMC,084734.925,A,2306.4483,N,07235.6422,E,11.30,15.55,030818,,,A*64

$GPVTG,15.55,T,,M,11.30,N,20.94,K,A*05

$GPGGA,084736.000,2306.4568,N,07235.6447,E,1,5,1.43,134.0,M,-56.7,M,,*74

$GPGLL,2306.4568,N,07235.6447,E,084736.000,A,A*5D

$GPGSA,A,3,05,25,12,29,02,,,,,,,,1.72,1.43,0.97*06

$GPGSV,3,1,09,05,58,044,17,25,58,266,16,12,48,184,22,29,37,332,17*7A

$GPGSV,3,2,09,193,31,059,15,02,30,045,17,15,18,168,16,24,02,189,*47

$GPGSV,3,3,09,21,,,22*73

$GPRMC,084736.000,A,2306.4568,N,07235.6447,E,16.18,11.89,030818,,,A*67

$GPVTG,11.89,T,,M,16.18,N,29.98,K,A*08

$GPGGA,084737.000,2306.4565,N,07235.6468,E,1,6,1.23,88.6,M,-56.7,M,,*40

$GPGLL,2306.4565,N,07235.6468,E,084737.000,A,A*5C

$GPGSA,A,3,05,25,12,29,02,15,,,,,,,1.54,1.23,0.92*05

$GPGSV,3,1,09,05,58,044,35,25,58,266,19,12,48,184,30,29,37,332,37*74

$GPGSV,3,2,09,193,31,059,25,02,30,045,19,15,18,168,16,24,02,189,*4A

$GPGSV,3,3,09,21,,,33*73

$GPRMC,084737.000,A,2306.4565,N,07235.6468,E,16.58,34.22,030818,,,A*64

$GPVTG,34.22,T,,M,16.58,N,30.73,K,A*07

$GPGGA,084738.000,,,,,0,6,,,M,,M,,*4E

$GPGLL,,,,,084738.000,V,N*7A

$GPGSA,A,1,,,,,,,,,,,,,,,*1E

$GPGSV,3,1,09,05,58,044,34,25,58,266,20,12,48,184,30,29,37,332,37*7F

$GPGSV,3,2,09,193,31,059,22,02,30,045,19,15,18,168,17,24,02,189,*4C

$GPGSV,3,3,09,21,,,30*70

$GPRMC,084738.000,V,,,,,15.79,30.34,030818,,,N*41

$GPVTG,30.34,T,,M,15.79,N,29.25,K,N*00

$GPGGA,084739.000,2306.4605,N,07235.6535,E,1,6,1.23,127.8,M,-56.7,M,,*78

$GPGLL,2306.4605,N,07235.6535,E,084739.000,A,A*5E

$GPGSA,A,3,05,25,12,29,02,15,,,,,,,1.54,1.23,0.92*05

$GPGSV,3,1,09,05,58,044,32,25,58,266,22,12,48,184,33,29,37,332,37*78

$GPGSV,3,2,09,193,31,059,19,02,30,045,18,15,18,168,16,24,02,189,*44

$GPGSV,3,3,09,21,,,29*78

$GPRMC,084739.000,A,2306.4605,N,07235.6535,E,12.24,63.80,030818,,,A*63

$GPVTG,63.80,T,,M,12.24,N,22.69,K,A*0A

$GPGGA,084740.000,2306.4653,N,07235.6551,E,1,6,1.23,114.2,M,-56.7,M,,*7D

$GPGLL,2306.4653,N,07235.6551,E,084740.000,A,A*51

$GPGSA,A,3,05,25,12,29,02,15,,,,,,,1.54,1.23,0.92*05

$GPGSV,3,1,09,05,58,044,28,25,58,266,29,12,48,184,26,29,37,332,38*73

$GPGSV,3,2,09,193,31,059,18,02,30,045,18,15,18,168,17,24,02,189,*44

$GPGSV,3,3,09,21,,,25*74

$GPRMC,084740.000,A,2306.4653,N,07235.6551,E,15.89,32.61,030818,,,A*67

$GPVTG,32.61,T,,M,15.89,N,29.43,K,A*02

$GPGGA,084741.000,2306.4680,N,07235.6590,E,1,6,1.23,104.3,M,-56.7,M,,*7F

$GPGLL,2306.4680,N,07235.6590,E,084741.000,A,A*53

$GPGSA,A,3,05,25,12,29,02,15,,,,,,,1.54,1.23,0.92*05

$GPGSV,3,1,09,05,58,044,25,25,58,266,28,12,48,184,29,29,37,332,39*71

$GPGSV,3,2,09,193,31,059,15,02,30,045,17,15,18,168,17,24,02,189,*46

$GPGSV,3,3,09,21,,,28*79

$GPRMC,084741.000,A,2306.4680,N,07235.6590,E,16.72,44.53,030818,,,A*62

$GPVTG,44.53,T,,M,16.72,N,30.98,K,A*0B

$GPGGA,084742.000,2306.4666,N,07235.6683,E,1,6,1.23,98.7,M,-56.7,M,,*45

$GPGLL,2306.4666,N,07235.6683,E,084742.000,A,A*59

$GPGSA,A,3,05,25,12,29,02,15,,,,,,,1.54,1.23,0.93*04

$GPGSV,3,1,09,05,58,044,28,25,58,266,28,12,48,184,28,29,37,332,39*7D

$GPGSV,3,2,09,193,31,059,14,02,30,045,15,15,18,168,14,24,02,189,*46

$GPGSV,3,3,09,21,,,28*79

$GPRMC,084742.000,A,2306.4666,N,07235.6683,E,13.42,80.38,030818,,,A*6B

$GPVTG,80.38,T,,M,13.42,N,24.87,K,A*03

$GPGGA,084743.000,2306.4689,N,07235.6705,E,1,6,1.23,86.5,M,-56.7,M,,*47

$GPGLL,2306.4689,N,07235.6705,E,084743.000,A,A*56

$GPGSA,A,3,05,25,12,29,02,15,,,,,,,1.54,1.23,0.93*04

$GPGSV,3,1,09,05,58,044,29,25,58,266,28,12,48,184,28,29,37,332,40*72

$GPGSV,3,2,09,193,31,059,12,02,30,045,18,15,18,168,16,24,02,189,*4F

$GPGSV,3,3,09,21,,,28*79

$GPRMC,084743.000,A,2306.4689,N,07235.6705,E,11.14,41.42,030818,,,A*65

$GPVTG,41.42,T,,M,11.14,N,20.64,K,A*0B

$GPGGA,084744.000,2306.4708,N,07235.6722,E,1,6,1.23,85.1,M,-56.7,M,,*4A

$GPGLL,2306.4708,N,07235.6722,E,084744.000,A,A*5C

$GPGSA,A,3,05,25,12,29,02,15,,,,,,,1.54,1.23,0.93*04

$GPGSV,3,1,09,05,58,044,29,25,58,266,28,12,48,184,29,29,37,332,40*73

$GPGSV,3,2,09,193,31,059,12,02,30,045,18,15,18,168,27,24,02,189,*4D

$GPGSV,3,3,09,21,,,26*77

$GPRMC,084744.000,A,2306.4708,N,07235.6722,E,7.02,65.88,030818,,,A*5F

$GPVTG,65.88,T,,M,7.02,N,13.00,K,A*39

$GPGGA,084745.000,2306.4744,N,07235.6747,E,1,6,1.23,81.9,M,-56.7,M,,*4C

$GPGLL,2306.4744,N,07235.6747,E,084745.000,A,A*56

$GPGSA,A,3,05,25,12,29,02,15,,,,,,,1.54,1.23,0.93*04

$GPGSV,3,1,09,05,58,044,29,25,58,266,29,12,48,184,29,29,37,332,40*72

$GPGSV,3,2,09,193,31,059,15,02,30,045,17,15,18,168,22,24,02,189,*40

$GPGSV,3,3,09,21,,,18*7A

$GPRMC,084745.000,A,2306.4744,N,07235.6747,E,5.50,51.24,030818,,,A*51

$GPVTG,51.24,T,,M,5.50,N,10.19,K,A*36

$GPGGA,084746.000,2306.4751,N,07235.6710,E,1,6,1.23,102.9,M,-56.7,M,,*73

$GPGLL,2306.4751,N,07235.6710,E,084746.000,A,A*53

$GPGSA,A,3,05,25,12,29,02,15,,,,,,,1.54,1.23,0.93*04

$GPGSV,3,1,09,05,58,044,30,25,58,266,28,12,48,184,30,29,37,332,40*73

$GPGSV,3,2,09,193,31,059,17,02,30,045,17,15,18,168,29,24,02,189,*49

$GPGSV,3,3,09,21,,,19*7B

$GPRMC,084746.000,A,2306.4751,N,07235.6710,E,5.56,73.54,030818,,,A*55

$GPVTG,73.54,T,,M,5.56,N,10.31,K,A*3D

$GPGGA,084747.000,2306.4759,N,07235.6735,E,1,6,1.23,103.2,M,-56.7,M,,*77

$GPGLL,2306.4759,N,07235.6735,E,084747.000,A,A*5D

$GPGSA,A,3,05,25,12,29,02,15,,,,,,,1.54,1.23,0.93*04

$GPGSV,3,1,09,05,58,044,30,25,58,266,28,12,48,184,30,29,37,332,40*73

$GPGSV,3,2,09,193,31,059,15,02,30,045,17,15,18,168,34,24,02,189,*47

$GPGSV,3,3,09,21,,,20*71

$GPRMC,084747.000,A,2306.4759,N,07235.6735,E,7.54,63.92,030818,,,A*50

$GPVTG,63.92,T,,M,7.54,N,13.96,K,A*38

$GPGGA,084748.000,2306.4747,N,07235.6796,E,1,6,1.23,102.9,M,-56.7,M,,*74

$GPGLL,2306.4747,N,07235.6796,E,084748.000,A,A*54

$GPGSA,A,3,05,25,12,29,02,15,,,,,,,1.54,1.23,0.93*04

$GPGSV,3,1,09,05,58,044,30,25,58,266,28,12,48,184,31,29,37,332,23*77

$GPGSV,3,2,09,193,31,059,15,02,30,045,17,15,18,168,35,24,02,189,*46

$GPGSV,3,3,09,21,,,21*70

$GPRMC,084748.000,A,2306.4747,N,07235.6796,E,8.78,78.47,030818,,,A*5A

$GPVTG,78.47,T,,M,8.78,N,16.28,K,A*3B

$GPGGA,084749.000,2306.4754,N,07235.6802,E,1,6,1.23,94.7,M,-56.7,M,,*45

$GPGLL,2306.4754,N,07235.6802,E,084749.000,A,A*55

$GPGSA,A,3,05,25,12,29,02,15,,,,,,,1.54,1.23,0.93*04

$GPGSV,3,1,09,05,58,044,31,25,58,266,26,12,48,184,32,29,37,332,21*79

$GPGSV,3,2,09,193,31,059,17,02,30,045,17,15,18,168,39,24,02,189,*48

$GPGSV,3,3,09,21,,,20*71

$GPRMC,084749.000,A,2306.4754,N,07235.6802,E,7.48,76.09,030818,,,A*53

$GPVTG,76.09,T,,M,7.48,N,13.86,K,A*32

$GPGGA,084750.000,2306.4760,N,07235.6853,E,1,6,1.23,91.1,M,-56.7,M,,*4D

$GPGLL,2306.4760,N,07235.6853,E,084750.000,A,A*5E

$GPGSA,A,3,05,25,12,29,02,15,,,,,,,1.54,1.23,0.93*04

$GPGSV,3,1,09,05,58,044,32,25,58,265,25,12,48,184,31,29,37,332,20*78

$GPGSV,3,2,09,193,31,059,17,02,30,045,15,15,18,168,36,24,02,189,*45

$GPGSV,3,3,09,21,,,21*70

$GPRMC,084750.000,A,2306.4760,N,07235.6853,E,13.03,87.84,030818,,,A*69

$GPVTG,87.84,T,,M,13.03,N,24.15,K,A*0D

$GPGGA,084751.000,2306.4750,N,07235.6917,E,1,6,1.23,93.7,M,-56.7,M,,*4A

$GPGLL,2306.4750,N,07235.6917,E,084751.000,A,A*5D

$GPGSA,A,3,05,25,12,29,02,15,,,,,,,1.54,1.23,0.93*04

$GPGSV,3,1,09,05,58,044,33,25,58,265,26,12,48,184,32,29,37,332,18*72

$GPGSV,3,2,09,193,31,059,16,02,30,045,17,15,18,168,35,24,02,189,*45

$GPGSV,3,3,09,21,,,22*73

$GPRMC,084751.000,A,2306.4750,N,07235.6917,E,17.30,88.05,030818,,,A*68

$GPVTG,88.05,T,,M,17.30,N,32.06,K,A*0A

$GPGGA,084752.000,2306.4768,N,07235.6954,E,1,6,1.33,85.9,M,-56.7,M,,*4D

$GPGLL,2306.4768,N,07235.6954,E,084752.000,A,A*52

$GPGSA,A,3,05,25,12,29,02,15,,,,,,,2.78,1.33,2.44*00

$GPGSV,3,1,09,05,58,044,34,25,58,265,26,12,48,184,39,29,37,332,17*71

$GPGSV,3,2,09,193,31,059,16,02,30,045,25,15,18,168,33,24,02,189,*42

$GPGSV,3,3,09,21,,,21*70

$GPRMC,084752.000,A,2306.4768,N,07235.6954,E,20.31,94.71,030818,,,A*6C

$GPVTG,94.71,T,,M,20.31,N,37.64,K,A*00

$GPGGA,084753.000,2306.4774,N,07235.7000,E,1,6,1.23,75.3,M,-56.7,M,,*4C

$GPGLL,2306.4774,N,07235.7000,E,084753.000,A,A*57

$GPGSA,A,3,05,25,12,29,02,15,,,,,,,1.54,1.23,0.93*04

$GPGSV,3,1,09,05,58,044,35,25,58,265,25,12,48,184,39,29,37,332,24*73

$GPGSV,3,2,09,193,31,059,15,02,30,045,18,15,18,168,32,24,02,189,*4E

$GPGSV,3,3,09,21,,,20*71

$GPRMC,084753.000,A,2306.4774,N,07235.7000,E,19.58,96.85,030818,,,A*65

$GPVTG,96.85,T,,M,19.58,N,36.28,K,A*05

$GPGGA,084754.000,2306.4736,N,07235.7116,E,1,6,1.23,79.0,M,-56.7,M,,*44

$GPGLL,2306.4736,N,07235.7116,E,084754.000,A,A*50

$GPGSA,A,3,05,25,12,29,02,15,,,,,,,1.54,1.23,0.93*04

$GPGSV,3,1,09,05,58,044,35,25,58,265,23,12,48,184,38,29,38,332,23*7C

$GPGSV,3,2,09,193,31,059,14,02,30,045,17,15,18,168,21,24,02,189,*42

$GPGSV,3,3,09,21,,,20*71

$GPRMC,084754.000,A,2306.4736,N,07235.7116,E,17.65,97.80,030818,,,A*66

$GPVTG,97.80,T,,M,17.65,N,32.71,K,A*09

$GPGGA,084755.000,2306.4723,N,07235.7142,E,1,6,1.23,85.7,M,-56.7,M,,*44

$GPGLL,2306.4723,N,07235.7142,E,084755.000,A,A*54

$GPGSA,A,3,05,25,12,29,02,15,,,,,,,1.54,1.23,0.93*04

$GPGSV,3,1,09,05,58,044,33,25,58,265,21,12,48,184,38,29,38,332,21*7A

$GPGSV,3,2,09,193,31,059,14,02,30,045,13,15,18,168,22,24,02,189,*45

$GPGSV,3,3,09,21,,,20*71

$GPRMC,084755.000,A,2306.4723,N,07235.7142,E,16.55,100.54,030818,,,A*56

$GPVTG,100.54,T,,M,16.55,N,30.67,K,A*38

$GPGGA,084756.000,2306.4723,N,07235.7193,E,1,6,1.23,83.0,M,-56.7,M,,*4A

$GPGLL,2306.4723,N,07235.7193,E,084756.000,A,A*5B

$GPGSA,A,3,05,25,12,29,02,15,,,,,,,1.54,1.23,0.93*04

$GPGSV,3,1,09,05,58,044,32,25,58,265,22,12,48,184,38,29,38,332,14*7E

$GPGSV,3,2,09,193,31,059,12,02,30,045,14,15,18,168,21,24,02,189,*47

$GPGSV,3,3,09,21,,,19*7B

$GPRMC,084756.000,A,2306.4723,N,07235.7193,E,15.86,97.18,030818,,,A*63

$GPVTG,97.18,T,,M,15.86,N,29.38,K,A*00

$GPGGA,084757.000,2306.4715,N,07235.7237,E,1,6,1.23,80.0,M,-56.7,M,,*40

$GPGLL,2306.4715,N,07235.7237,E,084757.000,A,A*52

$GPGSA,A,3,05,25,12,29,02,15,,,,,,,1.54,1.23,0.93*04

$GPGSV,3,1,09,05,58,044,34,25,58,265,23,12,48,184,30,29,38,332,15*70

$GPGSV,3,2,09,193,31,059,17,02,30,045,17,15,18,168,22,24,02,189,*42

$GPGSV,3,3,09,21,,,18*7A

$GPRMC,084757.000,A,2306.4715,N,07235.7237,E,17.80,106.44,030818,,,A*5E

$GPVTG,106.44,T,,M,17.80,N,32.98,K,A*34

$GPGGA,084758.000,2306.4707,N,07235.7314,E,1,6,1.23,75.9,M,-56.7,M,,*4F

$GPGLL,2306.4707,N,07235.7314,E,084758.000,A,A*5E

$GPGSA,A,3,05,25,12,29,02,15,,,,,,,1.54,1.23,0.93*04

$GPGSV,3,1,09,05,58,044,35,25,58,265,24,12,48,184,39,29,38,332,23*7A

$GPGSV,3,2,09,193,31,059,18,02,30,045,24,15,18,168,30,24,02,189,*4E

$GPGSV,3,3,09,21,,,18*7A

$GPRMC,084758.000,A,2306.4707,N,07235.7314,E,15.16,105.35,030818,,,A*5A

$GPVTG,105.35,T,,M,15.16,N,28.10,K,A*37

$GPGGA,084759.000,2306.4692,N,07235.7342,E,1,6,1.23,69.6,M,-56.7,M,,*42

$GPGLL,2306.4692,N,07235.7342,E,084759.000,A,A*51

$GPGSA,A,3,05,25,12,29,02,15,,,,,,,1.54,1.23,0.93*04

$GPGSV,3,1,09,05,58,044,36,25,58,265,23,12,48,184,38,29,38,332,20*7C

$GPGSV,3,2,09,193,31,059,18,02,30,045,25,15,18,168,22,24,02,189,*4C

$GPGSV,3,3,09,21,,,16*74

$GPRMC,084759.000,A,2306.4692,N,07235.7342,E,15.25,112.92,030818,,,A*5E

$GPVTG,112.92,T,,M,15.25,N,28.26,K,A*39

$GPGGA,084800.000,2306.4680,N,07235.7378,E,1,6,1.23,69.2,M,-56.7,M,,*4F

$GPGLL,2306.4680,N,07235.7378,E,084800.000,A,A*58

$GPGSA,A,3,05,25,12,29,02,15,,,,,,,1.54,1.23,0.93*04

$GPGSV,3,1,09,05,58,044,37,25,58,265,22,12,48,184,30,29,38,332,18*7F

$GPGSV,3,2,09,193,31,059,19,02,30,045,31,15,18,168,23,24,02,189,*49

$GPGSV,3,3,09,21,,,16*74

$GPRMC,084800.000,A,2306.4680,N,07235.7378,E,13.01,118.40,030818,,,A*52

$GPVTG,118.40,T,,M,13.01,N,24.11,K,A*34

$GPGGA,084801.000,2306.4656,N,07235.7411,E,1,6,1.33,70.0,M,-56.7,M,,*46

$GPGLL,2306.4656,N,07235.7411,E,084801.000,A,A*5A

$GPGSA,A,3,05,25,12,29,02,15,,,,,,,2.79,1.33,2.45*00

$GPGSV,3,1,09,05,58,044,38,25,58,265,23,12,48,184,37,29,38,332,17*79

$GPGSV,3,2,09,193,31,059,20,02,30,045,32,15,18,168,25,24,02,189,*46

$GPGSV,3,3,09,21,,,16*74

$GPRMC,084801.000,A,2306.4656,N,07235.7411,E,10.64,126.99,030818,,,A*59

$GPVTG,126.99,T,,M,10.64,N,19.72,K,A*36

$GPGGA,084802.000,2306.4641,N,07235.7447,E,1,6,1.33,73.3,M,-56.7,M,,*40

$GPGLL,2306.4641,N,07235.7447,E,084802.000,A,A*5C

$GPGSA,A,3,05,25,12,29,02,15,,,,,,,2.79,1.33,2.45*00

$GPGSV,3,1,09,05,58,044,37,25,58,265,22,12,48,184,37,29,38,332,18*78

$GPGSV,3,2,09,193,31,059,28,02,30,046,32,15,18,168,27,24,02,189,*4F

$GPGSV,3,3,09,21,,,16*74

$GPRMC,084802.000,A,2306.4641,N,07235.7447,E,13.04,128.32,030818,,,A*55

$GPVTG,128.32,T,,M,13.04,N,24.16,K,A*30

$GPGGA,084803.000,2306.4615,N,07235.7472,E,1,6,1.33,72.7,M,-56.7,M,,*43

$GPGLL,2306.4615,N,07235.7472,E,084803.000,A,A*5A

$GPGSA,A,3,05,25,12,29,02,15,,,,,,,2.79,1.33,2.45*00

$GPGSV,3,1,09,05,58,044,37,25,58,265,24,12,48,184,37,29,38,332,20*75

$GPGSV,3,2,09,193,31,059,28,02,30,046,33,15,18,168,28,24,02,189,*41

$GPGSV,3,3,09,21,,,15*77

$GPRMC,084803.000,A,2306.4615,N,07235.7472,E,13.37,130.56,030818,,,A*58

$GPVTG,130.56,T,,M,13.37,N,24.78,K,A*33

$GPGGA,084804.000,2306.4577,N,07235.7511,E,1,6,1.23,73.3,M,-56.7,M,,*43

$GPGLL,2306.4577,N,07235.7511,E,084804.000,A,A*5E

$GPGSA,A,3,05,25,12,29,02,15,,,,,,,1.54,1.23,0.93*04

$GPGSV,3,1,09,05,58,044,37,25,58,265,34,12,48,184,36,29,38,332,29*7C

$GPGSV,3,2,09,193,31,059,29,02,30,046,33,15,18,168,27,24,02,189,*4F

$GPGSV,3,3,09,21,,,13*71

$GPRMC,084804.000,A,2306.4577,N,07235.7511,E,12.21,137.85,030818,,,A*53

$GPVTG,137.85,T,,M,12.21,N,22.62,K,A*31

$GPGGA,084805.000,2306.4544,N,07235.7547,E,1,6,1.33,83.3,M,-56.7,M,,*4F

$GPGLL,2306.4544,N,07235.7547,E,084805.000,A,A*5C

$GPGSA,A,3,05,25,12,29,02,15,,,,,,,2.79,1.33,2.45*00

$GPGSV,3,1,09,05,58,044,37,25,58,265,35,12,48,184,36,29,38,332,30*75

$GPGSV,3,2,09,193,31,059,29,02,30,046,33,15,18,168,26,24,02,189,*4E

$GPGSV,3,3,09,21,,,13*71

$GPRMC,084805.000,A,2306.4544,N,07235.7547,E,12.26,141.01,030818,,,A*5B

$GPVTG,141.01,T,,M,12.26,N,22.72,K,A*3A

$GPGGA,084806.000,2306.4514,N,07235.7577,E,1,6,1.23,90.9,M,-56.7,M,,*43

$GPGLL,2306.4514,N,07235.7577,E,084806.000,A,A*59

$GPGSA,A,3,05,25,12,29,02,15,,,,,,,1.54,1.23,0.93*04

$GPGSV,3,1,09,05,58,044,35,25,58,265,36,12,48,184,28,29,38,332,24*7E

$GPGSV,3,2,09,193,31,059,29,02,30,046,32,15,18,168,19,24,02,189,*43

$GPGSV,3,3,09,21,,,14*76

$GPRMC,084806.000,A,2306.4514,N,07235.7577,E,11.71,142.67,030818,,,A*5C

$GPVTG,142.67,T,,M,11.71,N,21.70,K,A*39

$GPGGA,084807.000,2306.4484,N,07235.7603,E,1,6,1.23,97.3,M,-56.7,M,,*47

$GPGLL,2306.4484,N,07235.7603,E,084807.000,A,A*50

$GPGSA,A,3,05,25,12,29,02,15,,,,,,,1.54,1.23,0.93*04

$GPGSV,3,1,09,05,58,044,35,25,58,265,37,12,48,184,30,29,38,332,18*79

$GPGSV,3,2,09,193,31,059,30,02,30,046,33,15,18,168,26,24,02,189,*46

$GPGSV,3,3,09,21,,,23*72

$GPRMC,084807.000,A,2306.4484,N,07235.7603,E,11.39,146.50,030818,,,A*59

$GPVTG,146.50,T,,M,11.39,N,21.10,K,A*33

$GPGGA,084808.000,2306.4454,N,07235.7628,E,1,6,1.23,104.5,M,-56.7,M,,*71

$GPGLL,2306.4454,N,07235.7628,E,084808.000,A,A*5B

$GPGSA,A,3,05,25,12,29,02,15,,,,,,,1.54,1.23,0.93*04

$GPGSV,3,1,09,05,58,044,35,25,58,265,38,12,48,184,31,29,38,332,17*78

$GPGSV,3,2,09,193,31,059,31,02,30,046,33,15,18,168,27,24,02,189,*46

$GPGSV,3,3,09,21,,,24*75

$GPRMC,084808.000,A,2306.4454,N,07235.7628,E,10.96,145.69,030818,,,A*5F

$GPVTG,145.69,T,,M,10.96,N,20.32,K,A*3F

$GPGGA,084809.000,2306.4429,N,07235.7648,E,1,6,1.23,109.0,M,-56.7,M,,*74

$GPGLL,2306.4429,N,07235.7648,E,084809.000,A,A*56

$GPGSA,A,3,05,25,12,29,02,15,,,,,,,1.54,1.23,0.93*04

$GPGSV,3,1,09,05,58,044,34,25,58,265,39,12,48,184,30,29,38,332,20*7D

$GPGSV,3,2,09,193,31,059,31,02,30,046,33,15,18,168,26,24,02,189,*47

$GPGSV,3,3,09,21,,,26*77

$GPRMC,084809.000,A,2306.4429,N,07235.7648,E,9.57,146.17,030818,,,A*6D

$GPVTG,146.17,T,,M,9.57,N,17.74,K,A*06

$GPGGA,084810.000,2306.4406,N,07235.7666,E,1,6,1.23,112.9,M,-56.7,M,,*7E

$GPGLL,2306.4406,N,07235.7666,E,084810.000,A,A*5F

$GPGSA,A,3,05,25,12,29,02,15,,,,,,,1.54,1.23,0.93*04

$GPGSV,3,1,09,05,58,044,34,25,58,265,40,12,48,184,28,29,38,332,19*70

$GPGSV,3,2,09,193,31,059,30,02,30,046,32,15,18,168,18,24,02,189,*4A

$GPGSV,3,3,09,21,,,25*74

$GPRMC,084810.000,A,2306.4406,N,07235.7666,E,8.83,147.05,030818,,,A*6E

$GPVTG,147.05,T,,M,8.83,N,16.36,K,A*0B

$GPGGA,084811.000,2306.4385,N,07235.7683,E,1,6,1.23,116.2,M,-56.7,M,,*77

$GPGLL,2306.4385,N,07235.7683,E,084811.000,A,A*59

$GPGSA,A,3,05,25,12,29,02,15,,,,,,,1.54,1.23,0.93*04

$GPGSV,3,1,09,05,58,044,33,25,58,265,40,12,48,184,27,29,38,332,18*79

$GPGSV,3,2,09,193,31,059,30,02,30,046,31,15,18,168,18,24,02,189,*49

$GPGSV,3,3,09,21,,,18*7A

$GPRMC,084811.000,A,2306.4385,N,07235.7683,E,8.52,147.29,030818,,,A*6A

$GPVTG,147.29,T,,M,8.52,N,15.80,K,A*07

$GPGGA,084812.000,2306.4365,N,07235.7698,E,1,6,1.23,119.0,M,-56.7,M,,*7D

$GPGLL,2306.4365,N,07235.7698,E,084812.000,A,A*5E

$GPGSA,A,3,05,25,12,29,02,15,,,,,,,1.54,1.23,0.93*04

$GPGSV,3,1,09,05,58,044,32,25,58,265,40,12,47,184,23,29,38,332,18*73

$GPGSV,3,2,09,193,31,059,30,02,30,046,30,15,18,168,17,24,02,189,*47

$GPGSV,3,3,09,21,,,18*7A

$GPRMC,084812.000,A,2306.4365,N,07235.7698,E,7.72,148.73,030818,,,A*60

$GPVTG,148.73,T,,M,7.72,N,14.30,K,A*00

$GPGGA,084813.000,2306.4348,N,07235.7708,E,1,6,1.23,121.3,M,-56.7,M,,*73

$GPGLL,2306.4348,N,07235.7708,E,084813.000,A,A*58

$GPGSA,A,3,05,25,12,29,02,15,,,,,,,1.54,1.23,0.93*04

$GPGSV,3,1,09,05,58,044,32,25,58,265,39,12,47,184,22,29,38,332,25*72

$GPGSV,3,2,09,193,31,059,31,02,30,046,30,15,18,168,17,24,02,189,*46

$GPGSV,3,3,09,21,,,20*71

$GPRMC,084813.000,A,2306.4348,N,07235.7708,E,7.07,156.22,030818,,,A*6F

$GPVTG,156.22,T,,M,7.07,N,13.10,K,A*0C

$GPGGA,084814.000,2306.4331,N,07235.7719,E,1,6,1.23,124.0,M,-56.7,M,,*7C

$GPGLL,2306.4331,N,07235.7719,E,084814.000,A,A*51

$GPGSA,A,3,05,25,12,29,02,15,,,,,,,1.54,1.23,0.93*04

$GPGSV,3,1,09,05,58,044,21,25,58,265,24,12,47,184,21,29,38,332,23*79

$GPGSV,3,2,09,193,31,059,22,02,30,046,19,15,18,168,17,24,02,189,*4F

$GPGSV,3,3,09,21,,,20*71

$GPRMC,084814.000,A,2306.4331,N,07235.7719,E,6.80,153.34,030818,,,A*6A

$GPVTG,153.34,T,,M,6.80,N,12.59,K,A*0C

$GPGGA,084815.000,2306.4312,N,07235.7729,E,1,6,1.23,125.7,M,-56.7,M,,*79

$GPGLL,2306.4312,N,07235.7729,E,084815.000,A,A*52

$GPGSA,A,3,05,25,12,29,02,15,,,,,,,1.54,1.23,0.93*04

$GPGSV,3,1,09,05,58,044,21,25,58,265,24,12,47,184,19,29,38,332,21*70

$GPGSV,3,2,09,193,31,059,21,02,30,046,18,15,18,168,17,24,02,189,*4D

$GPGSV,3,3,09,21,,,18*7A

$GPRMC,084815.000,A,2306.4312,N,07235.7729,E,6.85,155.14,030818,,,A*68

$GPVTG,155.14,T,,M,6.85,N,12.70,K,A*06

$GPGGA,084816.000,2306.4289,N,07235.7729,E,1,6,1.23,127.7,M,-56.7,M,,*7B

$GPGLL,2306.4289,N,07235.7729,E,084816.000,A,A*52

$GPGSA,A,3,05,25,12,29,02,15,,,,,,,1.54,1.23,0.93*04

$GPGSV,3,1,09,05,58,044,23,25,58,265,39,12,47,184,31,29,38,332,20*75

$GPGSV,3,2,09,193,31,059,22,02,30,046,18,15,19,168,18,24,02,189,*40

$GPGSV,3,3,09,21,,,17*75

$GPRMC,084816.000,A,2306.4289,N,07235.7729,E,7.20,175.23,030818,,,A*60

$GPVTG,175.23,T,,M,7.20,N,13.34,K,A*0F

$GPGGA,084817.000,2306.4263,N,07235.7733,E,1,6,1.23,129.4,M,-56.7,M,,*78

$GPGLL,2306.4263,N,07235.7733,E,084817.000,A,A*5C

$GPGSA,A,3,05,25,12,29,02,15,,,,,,,1.54,1.23,0.93*04

$GPGSV,3,1,09,05,58,044,30,25,58,265,39,12,47,184,31,29,38,332,19*7D

$GPGSV,3,2,09,193,31,059,22,02,30,046,25,15,19,168,20,24,02,189,*45

$GPGSV,3,3,09,21,,,19*7B

$GPRMC,084817.000,A,2306.4263,N,07235.7733,E,8.70,177.48,030818,,,A*6B

$GPVTG,177.48,T,,M,8.70,N,16.11,K,A*08

$GPGGA,084818.000,2306.4243,N,07235.7727,E,1,6,1.23,130.4,M,-56.7,M,,*78

$GPGLL,2306.4243,N,07235.7727,E,084818.000,A,A*54

$GPGSA,A,3,05,25,12,29,02,15,,,,,,,1.54,1.23,0.93*04

$GPGSV,3,1,09,05,58,044,31,25,58,265,41,12,47,184,32,29,38,332,36*7D

$GPGSV,3,2,09,193,31,059,24,02,30,046,26,15,19,168,21,24,02,189,*41

$GPGSV,3,3,09,21,,,20*71

$GPRMC,084818.000,A,2306.4243,N,07235.7727,E,11.44,180.20,030818,,,A*5A

$GPVTG,180.20,T,,M,11.44,N,21.20,K,A*37

$GPGGA,084819.000,2306.4217,N,07235.7728,E,1,6,1.23,131.6,M,-56.7,M,,*74

$GPGLL,2306.4217,N,07235.7728,E,084819.000,A,A*5B

$GPGSA,A,3,05,25,12,29,02,15,,,,,,,1.54,1.23,0.93*04

$GPGSV,3,1,09,05,58,044,33,25,58,265,42,12,47,184,31,29,38,332,35*7C

$GPGSV,3,2,09,193,31,059,32,02,30,046,28,15,19,168,22,24,02,189,*4B

$GPGSV,3,3,09,21,,,22*73

$GPRMC,084819.000,A,2306.4217,N,07235.7728,E,13.53,172.78,030818,,,A*51

$GPVTG,172.78,T,,M,13.53,N,25.07,K,A*32

$GPGGA,084820.000,2306.4183,N,07235.7734,E,1,6,1.23,132.8,M,-56.7,M,,*70

$GPGLL,2306.4183,N,07235.7734,E,084820.000,A,A*52

$GPGSA,A,3,05,25,12,29,02,15,,,,,,,1.54,1.23,0.93*04

$GPGSV,3,1,09,05,58,044,24,25,58,265,41,12,47,184,32,29,38,332,35*7A

$GPGSV,3,2,09,193,31,059,31,02,30,046,29,15,19,168,22,24,02,189,*49

$GPGSV,3,3,09,21,,,24*75

$GPRMC,084820.000,A,2306.4183,N,07235.7734,E,15.61,172.75,030818,,,A*52

$GPVTG,172.75,T,,M,15.61,N,28.92,K,A*39

$GPGGA,084821.000,2306.4141,N,07235.7740,E,1,6,1.23,133.8,M,-56.7,M,,*7D

$GPGLL,2306.4141,N,07235.7740,E,084821.000,A,A*5E

$GPGSA,A,3,05,25,12,29,02,15,,,,,,,1.54,1.23,0.93*04

$GPGSV,3,1,09,05,58,044,23,25,58,265,41,12,47,184,34,29,38,332,33*7D

$GPGSV,3,2,09,193,31,059,29,02,30,046,29,15,19,168,21,24,02,189,*43

$GPGSV,3,3,09,21,,,24*75

$GPRMC,084821.000,A,2306.4141,N,07235.7740,E,16.54,174.03,030818,,,A*5C

$GPVTG,174.03,T,,M,16.54,N,30.65,K,A*3A

$GPGGA,084822.000,2306.4100,N,07235.7741,E,1,6,1.23,134.7,M,-56.7,M,,*72

$GPGLL,2306.4100,N,07235.7741,E,084822.000,A,A*59

$GPGSA,A,3,05,25,12,29,02,15,,,,,,,1.54,1.23,0.93*04

$GPGSV,3,1,09,05,58,044,23,25,58,265,40,12,47,184,35,29,38,332,34*7A

$GPGSV,3,2,09,193,31,059,28,02,30,046,28,15,19,168,21,24,02,189,*43

$GPGSV,3,3,09,21,,,24*75

$GPRMC,084822.000,A,2306.4100,N,07235.7741,E,16.70,181.56,030818,,,A*57

$GPVTG,181.56,T,,M,16.70,N,30.94,K,A*38

$GPGGA,084823.000,2306.4059,N,07235.7734,E,1,6,1.23,135.4,M,-56.7,M,,*7E

$GPGLL,2306.4059,N,07235.7734,E,084823.000,A,A*57

$GPGSA,A,3,05,25,12,29,02,15,,,,,,,1.54,1.23,0.93*04

$GPGSV,3,1,09,05,58,044,25,25,58,265,40,12,47,184,35,29,38,332,36*7E

$GPGSV,3,2,09,193,31,059,26,02,30,046,27,15,19,168,25,24,02,189,*46

$GPGSV,3,3,09,21,,,24*75

$GPRMC,084823.000,A,2306.4059,N,07235.7734,E,16.13,190.50,030818,,,A*5A

$GPVTG,190.50,T,,M,16.13,N,29.89,K,A*3F

$GPGGA,084824.000,2306.4019,N,07235.7721,E,1,6,1.23,136.1,M,-56.7,M,,*7F

$GPGLL,2306.4019,N,07235.7721,E,084824.000,A,A*50

$GPGSA,A,3,05,25,12,29,02,15,,,,,,,1.54,1.23,0.93*04

$GPGSV,3,1,09,05,58,044,26,25,58,265,40,12,47,184,35,29,38,332,37*7C

$GPGSV,3,2,09,193,31,059,25,02,30,046,25,15,19,168,24,24,02,189,*46

$GPGSV,3,3,09,21,,,22*73

$GPRMC,084824.000,A,2306.4019,N,07235.7721,E,15.58,197.34,030818,,,A*54

$GPVTG,197.34,T,,M,15.58,N,28.87,K,A*39

$GPGGA,084825.000,2306.3987,N,07235.7707,E,1,6,1.23,136.7,M,-56.7,M,,*75

$GPGLL,2306.3987,N,07235.7707,E,084825.000,A,A*5C

$GPGSA,A,3,05,25,12,29,02,15,,,,,,,1.54,1.23,0.93*04

$GPGSV,3,1,09,05,58,044,27,25,58,265,40,12,47,184,35,29,38,332,38*72

$GPGSV,3,2,09,193,31,059,24,02,30,046,24,15,19,168,25,24,02,189,*47

$GPGSV,3,3,09,21,,,20*71

$GPRMC,084825.000,A,2306.3987,N,07235.7707,E,12.85,205.81,030818,,,A*59

$GPVTG,205.81,T,,M,12.85,N,23.82,K,A*36

$GPGGA,084826.000,2306.3961,N,07235.7691,E,1,6,1.23,137.3,M,-56.7,M,,*75

$GPGLL,2306.3961,N,07235.7691,E,084826.000,A,A*59

$GPGSA,A,3,05,25,12,29,02,15,,,,,,,1.54,1.23,0.93*04

$GPGSV,3,1,09,05,58,044,27,25,58,265,39,12,47,184,33,29,38,332,39*7B

$GPGSV,3,2,09,193,31,059,22,02,30,046,23,15,19,168,22,24,02,189,*41

$GPGSV,3,3,09,21,,,11*73

$GPRMC,084826.000,A,2306.3961,N,07235.7691,E,11.03,210.72,030818,,,A*59

$GPVTG,210.72,T,,M,11.03,N,20.43,K,A*3D

$GPGGA,084827.000,2306.3941,N,07235.7676,E,1,6,1.23,137.7,M,-56.7,M,,*7B

$GPGLL,2306.3941,N,07235.7676,E,084827.000,A,A*53

$GPGSA,A,3,05,25,12,29,02,15,,,,,,,1.54,1.23,0.93*04

$GPGSV,3,1,09,05,58,044,28,25,58,265,39,12,47,184,33,29,38,332,39*74

$GPGSV,3,2,09,193,31,059,20,02,30,046,22,15,19,168,17,24,02,189,*44

$GPGSV,3,3,09,21,,,11*73

$GPRMC,084827.000,A,2306.3941,N,07235.7676,E,9.10,217.40,030818,,,A*6E

$GPVTG,217.40,T,,M,9.10,N,16.86,K,A*0C

$GPGGA,084828.000,2306.3929,N,07235.7667,E,1,6,1.23,138.1,M,-56.7,M,,*73

$GPGLL,2306.3929,N,07235.7667,E,084828.000,A,A*52

$GPGSA,A,3,05,25,12,29,02,15,,,,,,,1.54,1.23,0.93*04

$GPGSV,3,1,09,05,58,044,22,25,58,265,39,12,47,184,32,29,38,332,40*71

$GPGSV,3,2,09,193,31,059,18,02,30,046,22,15,19,168,19,24,02,189,*41

$GPGSV,3,3,09,21,,,12*70

$GPRMC,084828.000,A,2306.3929,N,07235.7667,E,6.52,213.81,030818,,,A*6F

$GPVTG,213.81,T,,M,6.52,N,12.09,K,A*0F

$GPGGA,084829.000,2306.3917,N,07235.7660,E,1,6,1.23,138.4,M,-56.7,M,,*7D

$GPGLL,2306.3917,N,07235.7660,E,084829.000,A,A*59

$GPGSA,A,3,05,25,12,29,02,15,,,,,,,1.54,1.23,0.93*04

$GPGSV,3,1,09,05,58,044,24,25,58,265,40,12,47,184,32,29,38,332,40*79

$GPGSV,3,2,09,193,31,059,17,02,30,046,21,15,19,168,21,24,02,189,*46

$GPGSV,3,3,09,21,,,13*71

$GPRMC,084829.000,A,2306.3917,N,07235.7660,E,5.39,208.80,030818,,,A*61

$GPVTG,208.80,T,,M,5.39,N,9.99,K,A*39

$GPGGA,084830.000,2306.3903,N,07235.7658,E,1,6,1.23,138.6,M,-56.7,M,,*79

$GPGLL,2306.3903,N,07235.7658,E,084830.000,A,A*5F

$GPGSA,A,3,05,25,12,29,02,15,,,,,,,1.54,1.23,0.93*04

$GPGSV,3,1,09,05,58,044,23,25,58,265,39,12,47,184,32,29,38,332,40*70

$GPGSV,3,2,09,193,31,059,16,02,30,046,21,15,19,168,29,24,02,189,*4F

$GPGSV,3,3,09,21,,,14*76

$GPRMC,084830.000,A,2306.3903,N,07235.7658,E,4.95,204.35,030818,,,A*62

$GPVTG,204.35,T,,M,4.95,N,9.17,K,A*3A

$GPGGA,084831.000,2306.3891,N,07235.7655,E,1,6,1.23,138.7,M,-56.7,M,,*7E

$GPGLL,2306.3891,N,07235.7655,E,084831.000,A,A*59

$GPGSA,A,3,05,25,12,29,02,15,,,,,,,1.54,1.23,0.93*04

$GPGSV,3,1,09,05,58,044,22,25,58,265,39,12,47,184,32,29,38,332,40*71

$GPGSV,3,2,09,193,31,059,16,02,30,046,21,15,19,168,28,24,02,189,*4E

$GPGSV,3,3,09,21,,,23*72

$GPRMC,084831.000,A,2306.3891,N,07235.7655,E,4.89,210.44,030818,,,A*6A

$GPVTG,210.44,T,,M,4.89,N,9.07,K,A*35

$GPGGA,084832.000,2306.3876,N,07235.7634,E,1,6,1.23,138.7,M,-56.7,M,,*73

$GPGLL,2306.3876,N,07235.7634,E,084832.000,A,A*54

$GPGSA,A,3,05,25,12,29,02,15,,,,,,,1.54,1.23,0.93*04

$GPGSV,3,1,09,05,58,044,33,25,58,265,39,12,47,184,32,29,38,332,40*71

$GPGSV,3,2,09,193,31,059,16,02,30,046,22,15,19,168,28,24,02,189,*4D

$GPGSV,3,3,09,21,,,25*74

$GPRMC,084832.000,A,2306.3876,N,07235.7634,E,5.90,219.00,030818,,,A*67

$GPVTG,219.00,T,,M,5.90,N,10.92,K,A*01

$GPGGA,084833.000,2306.3862,N,07235.7618,E,1,6,1.23,138.8,M,-56.7,M,,*76

$GPGLL,2306.3862,N,07235.7618,E,084833.000,A,A*5E

$GPGSA,A,3,05,25,12,29,02,15,,,,,,,1.54,1.23,0.93*04

$GPGSV,3,1,09,05,58,044,31,25,58,265,38,12,47,184,32,29,38,332,41*73

$GPGSV,3,2,09,193,31,059,16,02,30,046,24,15,19,168,28,24,02,189,*4B

$GPGSV,3,3,09,21,,,36*76

$GPRMC,084833.000,A,2306.3862,N,07235.7618,E,7.74,219.44,030818,,,A*65

$GPVTG,219.44,T,,M,7.74,N,14.34,K,A*01

$GPGGA,084834.000,2306.3842,N,07235.7600,E,1,6,1.23,138.8,M,-56.7,M,,*7A

$GPGLL,2306.3842,N,07235.7600,E,084834.000,A,A*52

$GPGSA,A,3,05,25,12,29,02,15,,,,,,,1.54,1.23,0.93*04

$GPGSV,3,1,09,05,58,044,22,25,58,265,38,12,47,184,31,29,38,332,41*72

$GPGSV,3,2,09,193,31,059,16,02,30,046,25,15,19,168,27,24,02,189,*45

$GPGSV,3,3,09,21,,,25*74

$GPRMC,084834.000,A,2306.3842,N,07235.7600,E,9.83,220.65,030818,,,A*66

$GPVTG,220.65,T,,M,9.83,N,18.22,K,A*05

$GPGGA,084835.000,2306.3822,N,07235.7576,E,1,6,1.23,138.8,M,-56.7,M,,*7F

$GPGLL,2306.3822,N,07235.7576,E,084835.000,A,A*57

$GPGSA,A,3,05,25,12,29,02,15,,,,,,,1.54,1.23,0.93*04

$GPGSV,3,1,09,05,58,044,23,25,58,265,38,12,47,184,32,29,38,332,41*70

$GPGSV,3,2,09,193,31,059,17,02,30,046,26,15,19,168,27,24,02,189,*47

$GPGSV,3,3,09,21,,,24*75

$GPRMC,084835.000,A,2306.3822,N,07235.7576,E,10.36,224.08,030818,,,A*5A

$GPVTG,224.08,T,,M,10.36,N,19.20,K,A*3F

$GPGGA,084836.000,2306.3800,N,07235.7555,E,1,6,1.23,138.7,M,-56.7,M,,*72

$GPGLL,2306.3800,N,07235.7555,E,084836.000,A,A*55

$GPGSA,A,3,05,25,12,29,02,15,,,,,,,1.54,1.23,0.93*04

$GPGSV,3,1,09,05,58,044,24,25,58,265,29,12,47,184,31,29,38,332,39*7B

$GPGSV,3,2,09,193,31,059,18,02,30,046,27,15,19,168,27,24,02,189,*49

$GPGSV,3,3,09,21,,,23*72

$GPRMC,084836.000,A,2306.3800,N,07235.7555,E,10.20,225.79,030818,,,A*58

$GPVTG,225.79,T,,M,10.20,N,18.90,K,A*35

$GPGGA,084837.000,2306.3779,N,07235.7530,E,1,6,1.23,138.6,M,-56.7,M,,*70

$GPGLL,2306.3779,N,07235.7530,E,084837.000,A,A*56

$GPGSA,A,3,05,25,12,29,02,15,,,,,,,1.54,1.23,0.93*04

$GPGSV,3,1,09,05,58,044,26,25,58,265,38,12,47,184,32,29,38,332,38*7B

$GPGSV,3,2,09,193,31,059,18,02,30,046,26,15,19,168,27,24,02,189,*48

$GPGSV,3,3,09,21,,,35*75

$GPRMC,084837.000,A,2306.3779,N,07235.7530,E,10.16,228.42,030818,,,A*5B

$GPVTG,228.42,T,,M,10.16,N,18.83,K,A*37

$GPGGA,084838.000,2306.3759,N,07235.7500,E,1,6,1.23,138.5,M,-56.7,M,,*7D

$GPGLL,2306.3759,N,07235.7500,E,084838.000,A,A*58

$GPGSA,A,3,05,25,12,29,02,15,,,,,,,1.54,1.23,0.93*04

$GPGSV,3,1,09,05,58,044,27,25,58,265,36,12,47,184,33,29,38,332,39*74

$GPGSV,3,2,09,193,31,059,18,02,30,046,27,15,19,168,25,24,02,189,*4B

$GPGSV,3,3,09,21,,,33*73

$GPRMC,084838.000,A,2306.3759,N,07235.7500,E,11.41,232.62,030818,,,A*5F

$GPVTG,232.62,T,,M,11.41,N,21.15,K,A*38

$GPGGA,084839.000,2306.3738,N,07235.7463,E,1,6,1.23,138.3,M,-56.7,M,,*79

$GPGLL,2306.3738,N,07235.7463,E,084839.000,A,A*5A

$GPGSA,A,3,05,25,12,29,02,15,,,,,,,1.54,1.23,0.93*04

$GPGSV,3,1,09,05,58,044,28,25,58,265,37,12,47,184,34,29,38,332,39*7D

$GPGSV,3,2,09,193,31,059,20,02,30,046,28,15,19,168,24,24,02,189,*4E

$GPGSV,3,3,09,21,,,31*71

$GPRMC,084839.000,A,2306.3738,N,07235.7463,E,13.07,236.02,030818,,,A*5F

$GPVTG,236.02,T,,M,13.07,N,24.22,K,A*3B

$GPGGA,084840.000,2306.3719,N,07235.7427,E,1,6,1.23,138.1,M,-56.7,M,,*76

$GPGLL,2306.3719,N,07235.7427,E,084840.000,A,A*57

$GPGSA,A,3,05,25,12,29,02,15,,,,,,,1.54,1.23,0.93*04

$GPGSV,3,1,09,05,58,044,28,25,58,265,37,12,47,184,35,29,38,332,38*7D

$GPGSV,3,2,09,193,31,059,21,02,30,046,21,15,19,168,23,24,02,189,*41

$GPGSV,3,3,09,21,,,21*70

$GPRMC,084840.000,A,2306.3719,N,07235.7427,E,12.82,237.99,030818,,,A*5D

$GPVTG,237.99,T,,M,12.82,N,23.75,K,A*31

$GPGGA,084841.000,2306.3701,N,07235.7393,E,1,6,1.23,137.9,M,-56.7,M,,*71

$GPGLL,2306.3701,N,07235.7393,E,084841.000,A,A*57

$GPGSA,A,3,05,25,12,29,02,15,,,,,,,1.54,1.23,0.93*04

$GPGSV,3,1,09,25,58,265,36,05,57,044,30,12,47,184,35,29,38,332,38*7A

$GPGSV,3,2,09,193,31,059,22,02,30,046,30,15,19,168,23,24,02,189,*42

$GPGSV,3,3,09,21,,,22*73

$GPRMC,084841.000,A,2306.3701,N,07235.7393,E,10.69,239.73,030818,,,A*50

$GPVTG,239.73,T,,M,10.69,N,19.81,K,A*3E

$GPGGA,084842.000,2306.3688,N,07235.7364,E,1,6,1.23,137.7,M,-56.7,M,,*74

$GPGLL,2306.3688,N,07235.7364,E,084842.000,A,A*5C

$GPGSA,A,3,05,25,12,29,02,15,,,,,,,1.54,1.23,0.93*04

$GPGSV,3,1,09,25,58,265,24,05,57,044,30,12,47,184,35,29,38,332,25*75

$GPGSV,3,2,09,193,31,059,23,02,30,046,30,15,19,168,24,24,02,189,*44

$GPGSV,3,3,09,21,,,23*72

$GPRMC,084842.000,A,2306.3688,N,07235.7364,E,8.54,250.28,030818,,,A*6D

$GPVTG,250.28,T,,M,8.54,N,15.82,K,A*07

$GPGGA,084843.000,2306.3676,N,07235.7348,E,1,6,1.23,137.4,M,-56.7,M,,*79

$GPGLL,2306.3676,N,07235.7348,E,084843.000,A,A*52

$GPGSA,A,3,05,25,12,29,02,15,,,,,,,1.54,1.23,0.93*04

$GPGSV,3,1,09,25,58,265,31,05,57,044,29,12,47,184,33,29,38,332,27*7D

$GPGSV,3,2,09,193,31,059,23,02,30,046,29,15,19,168,26,24,02,189,*4E

$GPGSV,3,3,09,21,,,35*75

$GPRMC,084843.000,A,2306.3676,N,07235.7348,E,7.33,246.29,030818,,,A*6B

$GPVTG,246.29,T,,M,7.33,N,13.58,K,A*0E

$GPGGA,084844.000,2306.3669,N,07235.7330,E,1,6,1.23,137.2,M,-56.7,M,,*79

$GPGLL,2306.3669,N,07235.7330,E,084844.000,A,A*54

$GPGSA,A,3,05,25,12,29,02,15,,,,,,,1.54,1.23,0.93*04

$GPGSV,3,1,09,25,58,265,31,05,57,044,29,12,47,184,31,29,38,332,34*7D

$GPGSV,3,2,09,193,31,059,22,02,30,046,27,15,19,168,25,24,02,189,*42

$GPGSV,3,3,09,21,,,35*75

$GPRMC,084844.000,A,2306.3669,N,07235.7330,E,6.61,249.68,030818,,,A*61

$GPVTG,249.68,T,,M,6.61,N,12.26,K,A*0A

$GPGGA,084845.000,2306.3664,N,07235.7308,E,1,6,1.23,137.0,M,-56.7,M,,*7C

$GPGLL,2306.3664,N,07235.7308,E,084845.000,A,A*53

$GPGSA,A,3,05,25,12,29,02,15,,,,,,,1.54,1.23,0.93*04

$GPGSV,3,1,09,25,58,265,38,05,57,044,29,12,47,184,29,29,38,332,36*7F

$GPGSV,3,2,09,193,31,059,20,02,30,046,26,15,19,168,25,24,02,189,*41

$GPGSV,3,3,09,21,,,35*75

$GPRMC,084845.000,A,2306.3664,N,07235.7308,E,7.58,255.97,030818,,,A*60

$GPVTG,255.97,T,,M,7.58,N,14.05,K,A*0B

$GPGGA,084846.000,2306.3653,N,07235.7292,E,1,6,1.23,136.7,M,-56.7,M,,*7F

$GPGLL,2306.3653,N,07235.7292,E,084846.000,A,A*56

$GPGSA,A,3,05,25,12,29,02,15,,,,,,,1.54,1.23,0.93*04

$GPGSV,3,1,09,25,58,265,39,05,57,044,41,12,47,184,36,29,38,332,37*7F

$GPGSV,3,2,09,193,31,059,20,02,30,046,24,15,19,168,36,24,02,189,*41

$GPGSV,3,3,09,21,,,33*73

$GPRMC,084846.000,A,2306.3653,N,07235.7292,E,8.60,255.74,030818,,,A*6C

$GPVTG,255.74,T,,M,8.60,N,15.93,K,A*0C

$GPGGA,084847.000,2306.3647,N,07235.7260,E,1,6,1.23,136.6,M,-56.7,M,,*77

$GPGLL,2306.3647,N,07235.7260,E,084847.000,A,A*5F

$GPGSA,A,3,05,25,12,29,02,15,,,,,,,1.54,1.23,0.93*04

$GPGSV,3,1,09,25,58,265,39,05,57,044,34,12,47,184,34,29,38,332,38*70

$GPGSV,3,2,09,193,31,059,22,02,30,046,34,15,19,168,26,24,02,189,*43

$GPGSV,3,3,09,21,,,24*75

$GPRMC,084847.000,A,2306.3647,N,07235.7260,E,10.60,257.38,030818,,,A*56

$GPVTG,257.38,T,,M,10.60,N,19.65,K,A*3A

$GPGGA,084848.000,2306.3638,N,07235.7223,E,1,6,1.23,136.4,M,-56.7,M,,*75

$GPGLL,2306.3638,N,07235.7223,E,084848.000,A,A*5F

$GPGSA,A,3,05,25,12,29,02,15,,,,,,,1.54,1.23,0.93*04

$GPGSV,3,1,09,25,58,265,37,05,57,044,34,12,47,184,34,29,38,332,37*71

$GPGSV,3,2,09,193,31,059,24,02,30,046,34,15,19,168,27,24,02,189,*44

$GPGSV,3,3,09,21,,,25*74

$GPRMC,084848.000,A,2306.3638,N,07235.7223,E,12.62,258.26,030818,,,A*56

$GPVTG,258.26,T,,M,12.62,N,23.39,K,A*3A

$GPGGA,084849.000,2306.3629,N,07235.7174,E,1,6,1.23,136.2,M,-56.7,M,,*73

$GPGLL,2306.3629,N,07235.7174,E,084849.000,A,A*5F

$GPGSA,A,3,05,25,12,29,02,15,,,,,,,1.54,1.23,0.93*04

$GPGSV,3,1,09,25,58,265,36,05,57,044,33,12,47,184,34,29,38,332,36*76

$GPGSV,3,2,09,193,31,059,26,02,30,046,35,15,19,168,26,24,02,189,*46

$GPGSV,3,3,09,21,,,25*74

$GPRMC,084849.000,A,2306.3629,N,07235.7174,E,13.79,259.87,030818,,,A*57

$GPVTG,259.87,T,,M,13.79,N,25.56,K,A*34

$GPGGA,084850.000,2306.3622,N,07235.7117,E,1,6,1.23,135.9,M,-56.7,M,,*7D

$GPGLL,2306.3622,N,07235.7117,E,084850.000,A,A*59

$GPGSA,A,3,05,25,12,29,02,15,,,,,,,1.54,1.23,0.93*04

$GPGSV,3,1,09,25,58,265,35,05,57,044,35,12,47,184,34,29,38,332,37*72

$GPGSV,3,2,09,193,31,059,27,02,30,046,35,15,19,168,24,24,02,189,*45

$GPGSV,3,3,09,21,,,25*74

$GPRMC,084850.000,A,2306.3622,N,07235.7117,E,15.51,263.02,030818,,,A*59

$GPVTG,263.02,T,,M,15.51,N,28.74,K,A*31

$GPGGA,084851.000,2306.3618,N,07235.7058,E,1,6,1.23,135.5,M,-56.7,M,,*73

$GPGLL,2306.3618,N,07235.7058,E,084851.000,A,A*5B

$GPGSA,A,3,05,25,12,29,02,15,,,,,,,1.54,1.23,0.93*04

$GPGSV,3,1,09,25,58,265,35,05,57,044,36,12,47,184,35,29,38,332,37*70

$GPGSV,3,2,09,193,31,059,28,02,30,046,33,15,19,168,23,24,02,189,*4B

$GPGSV,3,3,09,21,,,25*74

$GPRMC,084851.000,A,2306.3618,N,07235.7058,E,16.59,263.54,030818,,,A*53

$GPVTG,263.54,T,,M,16.59,N,30.74,K,A*30

$GPGGA,084852.000,2306.3616,N,07235.7000,E,1,6,1.23,135.2,M,-56.7,M,,*74

$GPGLL,2306.3616,N,07235.7000,E,084852.000,A,A*5B

$GPGSA,A,3,05,25,12,29,02,15,,,,,,,1.54,1.23,0.93*04

$GPGSV,3,1,09,25,58,265,34,05,57,044,38,12,47,184,35,29,38,332,37*7F

$GPGSV,3,2,09,193,31,059,29,02,30,046,33,15,19,168,24,24,02,189,*4D

$GPGSV,3,3,09,21,,,24*75

$GPRMC,084852.000,A,2306.3616,N,07235.7000,E,16.98,270.26,030818,,,A*59

$GPVTG,270.26,T,,M,16.98,N,31.46,K,A*3A

$GPGGA,084853.000,2306.3619,N,07235.6942,E,1,6,1.23,134.9,M,-56.7,M,,*7E

$GPGLL,2306.3619,N,07235.6942,E,084853.000,A,A*5B

$GPGSA,A,3,05,25,12,29,02,15,,,,,,,1.54,1.23,0.93*04

$GPGSV,3,1,09,25,58,265,27,05,57,044,39,12,47,184,33,29,38,332,37*7A

$GPGSV,3,2,09,193,31,059,31,02,30,046,34,15,19,168,25,24,02,189,*42

$GPGSV,3,3,09,21,,,22*73

$GPRMC,084853.000,A,2306.3619,N,07235.6942,E,17.69,276.01,030818,,,A*55

$GPVTG,276.01,T,,M,17.69,N,32.77,K,A*37

$GPGGA,084854.000,2306.3627,N,07235.6884,E,1,6,1.34,134.6,M,-56.7,M,,*76

$GPGLL,2306.3627,N,07235.6884,E,084854.000,A,A*5A

$GPGSA,A,3,05,25,12,29,02,15,,,,,,,2.84,1.34,2.50*01

$GPGSV,3,1,09,25,58,265,27,05,57,044,39,12,47,184,32,29,38,332,37*7B

$GPGSV,3,2,09,193,31,059,31,02,30,046,34,15,19,168,25,24,02,189,*42

$GPGSV,3,3,09,21,,,13*71

$GPRMC,084854.000,A,2306.3627,N,07235.6884,E,17.28,284.59,030818,,,A*51

$GPVTG,284.59,T,,M,17.28,N,32.03,K,A*31

$GPGGA,084855.000,2306.3635,N,07235.6831,E,1,6,1.34,134.2,M,-56.7,M,,*7E

$GPGLL,2306.3635,N,07235.6831,E,084855.000,A,A*56

